lat,lng,state_id,state_name,population,county_fips,county_name
32.51249,-86.56896,AL,Alabama,26954,01001,Autauga
30.61297,-87.86137,AL,Alabama,27890,01003,Baldwin
31.93342,-85.20924,AL,Alabama,16261,01005,Barbour
33.11479,-87.13924,AL,Alabama,5841,01007,Bibb
33.94125,-86.45527,AL,Alabama,15570,01009,Blount
32.15113,-85.70046,AL,Alabama,8760,01011,Bullock
31.79895,-86.62528,AL,Alabama,14074,01013,Butler
33.84778,-85.78524,AL,Alabama,21060,01015,Calhoun
32.75379,-85.18444,AL,Alabama,14576,01017,Chambers
34.12779,-85.57398,AL,Alabama,10087,01019,Cherokee
32.80704,-86.67285,AL,Alabama,14870,01021,Chilton
32.10204,-88.25861,AL,Alabama,4098,01023,Choctaw
31.4894,-87.87434,AL,Alabama,9941,01025,Clarke
33.34875,-85.74062,AL,Alabama,5582,01027,Clay
33.59501,-85.53865,AL,Alabama,8659,01029,Cleburne
31.30615,-85.8632,AL,Alabama,35530,01031,Coffee
34.6576,-87.78283,AL,Alabama,18475,01033,Colbert
31.47366,-86.94931,AL,Alabama,8314,01035,Conecuh
33.08977,-86.06138,AL,Alabama,5193,01037,Coosa
31.17685,-86.57649,AL,Alabama,10673,01039,Covington
31.76331,-86.28198,AL,Alabama,5706,01041,Crenshaw
34.15399,-86.75906,AL,Alabama,19427,01043,Cullman
31.46766,-85.6177,AL,Alabama,20157,01045,Dale
32.47679,-87.05709,AL,Alabama,24268,01047,Dallas
34.40141,-85.69627,AL,Alabama,16630,01049,DeKalb
32.61799,-86.19335,AL,Alabama,20274,01051,Elmore
31.14072,-87.49393,AL,Alabama,18355,01053,Escambia
34.04796,-85.92463,AL,Alabama,20045,01055,Etowah
33.6663,-87.81846,AL,Alabama,10177,01057,Fayette
34.51688,-87.87134,AL,Alabama,11150,01059,Franklin
31.07549,-85.53886,AL,Alabama,7390,01061,Geneva
32.93442,-87.95285,AL,Alabama,5061,01063,Greene
32.69749,-87.59875,AL,Alabama,7419,01065,Hale
31.37526,-85.3083,AL,Alabama,7822,01067,Henry
31.14367,-85.40236,AL,Alabama,35759,01069,Houston
34.7711,-86.10539,AL,Alabama,11581,01071,Jackson
33.64919,-86.70587,AL,Alabama,46951,01073,Jefferson
33.74629,-88.08439,AL,Alabama,4664,01075,Lamar
34.82363,-87.66057,AL,Alabama,32629,01077,Lauderdale
34.45074,-87.3024,AL,Alabama,13971,01079,Lawrence
32.5389,-85.49207,AL,Alabama,33201,01081,Lee
34.76711,-87.08565,AL,Alabama,25251,01083,Limestone
32.16517,-86.68284,AL,Alabama,3976,01085,Lowndes
32.38841,-85.68244,AL,Alabama,9563,01087,Macon
34.71349,-86.74668,AL,Alabama,41875,01089,Madison
32.42337,-87.9152,AL,Alabama,8395,01091,Marengo
34.1646,-87.99501,AL,Alabama,11145,01093,Marion
34.25261,-86.26201,AL,Alabama,20826,01095,Marshall
30.63011,-88.28067,AL,Alabama,45118,01097,Mobile
31.52094,-87.30741,AL,Alabama,10738,01099,Monroe
32.37856,-86.14567,AL,Alabama,50268,01101,Montgomery
34.60907,-87.01333,AL,Alabama,34434,01103,Morgan
32.69351,-87.28014,AL,Alabama,6165,01105,Perry
33.25825,-87.91413,AL,Alabama,6075,01107,Pickens
31.90489,-85.89686,AL,Alabama,15267,01109,Pike
33.17308,-85.36788,AL,Alabama,11199,01111,Randolph
32.49662,-85.02347,AL,Alabama,22210,01113,Russell
33.66652,-86.42306,AL,Alabama,13842,01115,St. Clair
33.42521,-86.67144,AL,Alabama,49545,01117,Shelby
32.55682,-88.10364,AL,Alabama,5468,01119,Sumter
33.37483,-86.08659,AL,Alabama,26822,01121,Talladega
32.91644,-85.9368,AL,Alabama,20816,01123,Tallapoosa
33.16878,-87.61357,AL,Alabama,39878,01125,Tuscaloosa
33.89267,-87.1667,AL,Alabama,13596,01127,Walker
31.60774,-88.31852,AL,Alabama,3854,01129,Washington
31.97324,-87.29098,AL,Alabama,4814,01131,Wilcox
34.23414,-87.55886,AL,Alabama,13485,01133,Winston
54.12863,-165.80591,AK,Alaska,1027,02013,Aleutians East
53.87601,-166.47449,AK,Alaska,4224,02016,Aleutians West
61.20399,-149.74703,AK,Alaska,40914,02020,Anchorage
60.65431,-161.90549,AK,Alaska,7632,02050,Bethel
58.78297,-156.8984,AK,Alaska,544,02060,Bristol Bay
63.7838,-150.12793,AK,Alaska,1069,02068,Denali
59.99005,-158.39443,AK,Alaska,2603,02070,Dillingham
64.87812,-148.21562,AK,Alaska,29830,02090,Fairbanks North Star
59.12421,-135.70688,AK,Alaska,2602,02100,Haines
58.10737,-135.42584,AK,Alaska,777,02105,Hoonah-Angoon
58.39768,-134.05518,AK,Alaska,29164,02110,Juneau
60.71832,-150.98582,AK,Alaska,15122,02122,Kenai Peninsula
55.56908,-131.01272,AK,Alaska,13508,02130,Ketchikan Gateway
57.58324,-153.40115,AK,Alaska,12899,02150,Kodiak Island
59.79423,-154.64428,AK,Alaska,469,02164,Lake and Peninsula
61.45483,-149.90045,AK,Alaska,52168,02170,Matanuska-Susitna
64.84572,-164.46635,AK,Alaska,4038,02180,Nome
71.27374,-156.74527,AK,Alaska,4213,02185,North Slope
67.29139,-161.98517,AK,Alaska,3553,02188,Northwest Arctic
56.88522,-133.08514,AK,Alaska,3202,02195,Petersburg
55.45479,-132.77209,AK,Alaska,1920,02198,Prince of Wales-Hyder
56.96056,-135.05446,AK,Alaska,8880,02220,Sitka
59.56292,-135.33619,AK,Alaska,968,02230,Skagway
63.79602,-145.07328,AK,Alaska,5011,02240,Southeast Fairbanks
61.12201,-146.82103,AK,Alaska,4005,02261,Valdez-Cordova
61.52785,-166.11506,AK,Alaska,1093,02270,Wade Hampton
56.3695,-131.93648,AK,Alaska,2338,02275,Wrangell
59.52058,-139.48834,AK,Alaska,662,02282,Yakutat
67.53438,-143.7452,AK,Alaska,585,02290,Yukon-Koyukuk
36.17067,-109.6421,AZ,Arizona,10714,04001,Apache
31.57036,-110.17704,AZ,Arizona,34727,04003,Cochise
35.28949,-111.63774,AZ,Arizona,40776,04005,Coconino
34.19483,-111.3052,AZ,Arizona,21877,04007,Gila
32.71135,-109.58409,AZ,Arizona,19677,04009,Graham
33.32098,-109.38563,AZ,Arizona,2943,04011,Greenlee
34.07556,-114.22191,AZ,Arizona,9147,04012,La Paz
33.31738,-111.83218,AZ,Arizona,69810,04013,Maricopa
35.08682,-114.56705,AZ,Arizona,33382,04015,Mohave
34.29984,-109.99991,AZ,Arizona,17207,04017,Navajo
32.27127,-110.99213,AZ,Arizona,57521,04019,Pima
32.91719,-111.74423,AZ,Arizona,50942,04021,Pinal
31.42297,-111.04039,AZ,Arizona,23054,04023,Santa Cruz
34.62598,-112.30617,AZ,Arizona,34401,04025,Yavapai
32.70312,-114.65881,AZ,Arizona,74904,04027,Yuma
34.42237,-91.53302,AR,Arkansas,10736,05001,Arkansas
33.13014,-92.00055,AR,Arkansas,12348,05003,Ashley
36.34238,-92.38619,AR,Arkansas,28560,05005,Baxter
36.35041,-94.25426,AR,Arkansas,40933,05007,Benton
36.23725,-93.09178,AR,Arkansas,30163,05009,Boone
33.60431,-92.10146,AR,Arkansas,8665,05011,Bradley
33.49276,-92.47807,AR,Arkansas,3224,05013,Calhoun
36.34291,-93.5564,AR,Arkansas,10441,05015,Carroll
33.34112,-91.25754,AR,Arkansas,5152,05017,Chicot
34.08201,-93.04608,AR,Arkansas,15637,05019,Clark
36.40111,-90.2079,AR,Arkansas,5127,05021,Clay
35.45357,-91.98887,AR,Arkansas,12535,05023,Cleburne
33.93384,-92.11526,AR,Arkansas,6054,05025,Cleveland
33.23018,-93.18403,AR,Arkansas,16848,05027,Columbia
35.15468,-92.77548,AR,Arkansas,11498,05029,Conway
35.87894,-90.66057,AR,Arkansas,53767,05031,Craighead
35.46827,-94.34951,AR,Arkansas,34074,05033,Crawford
35.1448,-90.18805,AR,Arkansas,26069,05035,Crittenden
35.23114,-90.82297,AR,Arkansas,13734,05037,Cross
33.84887,-92.45283,AR,Arkansas,5980,05039,Dallas
33.89822,-91.52661,AR,Arkansas,6579,05041,Desha
33.63088,-91.7465,AR,Arkansas,15387,05043,Drew
35.05041,-92.48685,AR,Arkansas,44723,05045,Faulkner
35.57712,-93.80774,AR,Arkansas,10177,05047,Franklin
36.35157,-91.84667,AR,Arkansas,3868,05049,Fulton
34.44809,-93.09521,AR,Arkansas,43436,05051,Garland
34.31862,-92.39325,AR,Arkansas,12006,05053,Grant
36.07936,-90.51876,AR,Arkansas,36033,05055,Greene
33.64419,-93.59448,AR,Arkansas,16745,05057,Hempstead
34.34347,-92.82345,AR,Arkansas,23354,05059,Hot Spring
33.99921,-93.85534,AR,Arkansas,10102,05061,Howard
35.79155,-91.65344,AR,Arkansas,25099,05063,Independence
36.02359,-91.95913,AR,Arkansas,3375,05065,Izard
35.57974,-91.22614,AR,Arkansas,11467,05067,Jackson
34.12627,-92.0864,AR,Arkansas,34343,05069,Jefferson
35.51384,-93.51169,AR,Arkansas,14896,05071,Johnson
33.30174,-93.48878,AR,Arkansas,2633,05073,Lafayette
36.0518,-90.91955,AR,Arkansas,7155,05075,Lawrence
34.75473,-90.77151,AR,Arkansas,6466,05077,Lee
33.92544,-91.83071,AR,Arkansas,8267,05079,Lincoln
33.66116,-94.15639,AR,Arkansas,8925,05081,Little River
35.07484,-93.93656,AR,Arkansas,8701,05083,Logan
34.80895,-91.9094,AR,Arkansas,10727,05085,Lonoke
36.10253,-93.68698,AR,Arkansas,9543,05087,Madison
36.26758,-92.7136,AR,Arkansas,6461,05089,Marion
33.44698,-93.9015,AR,Arkansas,36438,05091,Miller
35.90486,-89.90133,AR,Arkansas,23966,05093,Mississippi
34.84674,-91.22427,AR,Arkansas,4348,05095,Monroe
34.56373,-93.58006,AR,Arkansas,3133,05097,Montgomery
33.80573,-93.34537,AR,Arkansas,5894,05099,Nevada
35.98244,-93.23047,AR,Arkansas,2585,05101,Newton
33.58632,-92.81988,AR,Arkansas,20286,05103,Ouachita
34.93742,-92.91483,AR,Arkansas,3674,05105,Perry
34.5502,-90.67834,AR,Arkansas,9107,05107,Phillips
34.33943,-93.59482,AR,Arkansas,4821,05109,Pike
35.59605,-90.53588,AR,Arkansas,9447,05111,Poinsett
34.61426,-94.19489,AR,Arkansas,14882,05113,Polk
35.31282,-93.06679,AR,Arkansas,20973,05115,Pope
34.97643,-91.54038,AR,Arkansas,2867,05117,Prairie
34.91137,-92.14352,AR,Arkansas,37979,05119,Pulaski
36.31837,-91.0361,AR,Arkansas,12518,05121,Randolph
34.9913,-90.75671,AR,Arkansas,20121,05123,St. Francis
34.49332,-92.5896,AR,Arkansas,27307,05125,Saline
34.90485,-94.12455,AR,Arkansas,8117,05127,Scott
35.88003,-92.70621,AR,Arkansas,4362,05129,Searcy
35.35138,-94.36031,AR,Arkansas,26148,05131,Sebastian
34.03781,-94.35088,AR,Arkansas,11253,05133,Sevier
35.95131,-91.54279,AR,Arkansas,4814,05135,Sharp
35.85173,-92.09184,AR,Arkansas,8754,05137,Stone
33.20062,-92.62907,AR,Arkansas,32213,05139,Union
35.61345,-92.52567,AR,Arkansas,7683,05141,Van Buren
36.17838,-94.05255,AR,Arkansas,50230,05143,Washington
35.22889,-91.73563,AR,Arkansas,35169,05145,White
35.24002,-91.15673,AR,Arkansas,3378,05147,Woodruff
35.16885,-93.18247,AR,Arkansas,10565,05149,Yell
37.63382,-122.05719,CA,California,73026,06001,Alameda
38.75366,-119.83344,CA,California,957,06003,Alpine
38.32956,-120.94261,CA,California,11353,06005,Amador
39.7456,-121.84388,CA,California,37725,06007,Butte
38.14951,-120.84699,CA,California,13460,06009,Calaveras
39.27204,-121.9988,CA,California,7718,06011,Colusa
38.01581,-121.90704,CA,California,84641,06013,Contra Costa
41.79625,-124.00515,CA,California,24528,06015,Del Norte
38.6764,-121.05772,CA,California,38797,06017,El Dorado
36.80098,-119.87727,CA,California,76448,06019,Fresno
39.73634,-122.26205,CA,California,15493,06021,Glenn
40.72427,-124.09613,CA,California,24152,06023,Humboldt
32.77255,-115.59929,CA,California,48030,06025,Imperial
37.50147,-118.40492,CA,California,13857,06027,Inyo
35.24847,-118.93632,CA,California,82658,06029,Kern
36.28802,-119.62301,CA,California,65264,06031,Kings
38.9763,-122.62313,CA,California,15585,06033,Lake
40.54876,-120.68499,CA,California,23150,06035,Lassen
33.90685,-118.08263,CA,California,105549,06037,Los Angeles
37.04018,-120.03353,CA,California,49068,06039,Madera
37.98,-122.50282,CA,California,41157,06041,Marin
37.50978,-119.98251,CA,California,11062,06043,Mariposa
39.16032,-123.24289,CA,California,31808,06045,Mendocino
37.06907,-120.84552,CA,California,38776,06047,Merced
41.45588,-120.53621,CA,California,5490,06049,Modoc
37.58419,-118.8523,CA,California,9567,06051,Mono
36.68323,-121.60699,CA,California,61087,06053,Monterey
38.45491,-122.25643,CA,California,66830,06055,Napa
39.19509,-120.977,CA,California,25199,06057,Nevada
33.7525,-117.99397,CA,California,89747,06059,Orange
38.78145,-121.37295,CA,California,51870,06061,Placer
39.93721,-120.90027,CA,California,5970,06063,Plumas
33.88163,-117.44479,CA,California,84519,06065,Riverside
38.47408,-121.44347,CA,California,73985,06067,Sacramento
36.89992,-121.35126,CA,California,48841,06069,San Benito
34.08717,-117.46549,CA,California,95397,06071,San Bernardino
32.60738,-117.05405,CA,California,82999,06073,San Diego
37.72032,-122.44296,CA,California,79407,06075,San Francisco
37.9141,-121.42134,CA,California,65004,06077,San Joaquin
35.66353,-120.73097,CA,California,43714,06079,San Luis Obispo
37.65554,-122.42214,CA,California,63975,06081,San Mateo
34.95709,-120.49062,CA,California,55431,06083,Santa Barbara
37.44422,-121.8743,CA,California,66943,06085,Santa Clara
36.93926,-121.74841,CA,California,82474,06087,Santa Cruz
40.74375,-122.2387,CA,California,44461,06089,Shasta
39.63885,-120.22928,CA,California,1627,06091,Sierra
41.7558,-122.67267,CA,California,10031,06093,Siskiyou
38.28061,-122.00669,CA,California,69277,06095,Solano
38.50251,-122.75443,CA,California,45164,06097,Sonoma
37.67282,-120.947,CA,California,58311,06099,Stanislaus
39.0225,-121.61286,CA,California,40593,06101,Sutter
40.16516,-122.38167,CA,California,28764,06103,Tehama
40.75871,-122.93798,CA,California,4133,06105,Trinity
35.98376,-118.87178,CA,California,75004,06107,Tulare
37.98462,-120.34883,CA,California,26803,06109,Tuolumne
34.15213,-119.12649,CA,California,82728,06111,Ventura
38.55932,-121.7977,CA,California,47032,06113,Yolo
39.22185,-121.49156,CA,California,31314,06115,Yuba
39.85544,-104.95739,CO,Colorado,49598,08001,Adams
37.48369,-105.83006,CO,Colorado,14675,08003,Alamosa
39.66139,-104.7657,CO,Colorado,69588,08005,Arapahoe
37.31914,-107.09655,CO,Colorado,11446,08007,Archuleta
37.42388,-102.70958,CO,Colorado,1932,08009,Baca
37.93472,-103.16646,CO,Colorado,5134,08011,Bent
40.1639,-105.02892,CO,Colorado,46876,08013,Boulder
39.9318,-105.07453,CO,Colorado,46871,08014,Broomfield
38.56049,-106.0648,CO,Colorado,8645,08015,Chaffee
38.82308,-102.45978,CO,Colorado,1127,08017,Cheyenne
39.70718,-105.61392,CO,Colorado,3097,08019,Clear Creek
37.30578,-106.12888,CO,Colorado,2341,08021,Conejos
37.1152,-105.39898,CO,Colorado,1434,08023,Costilla
38.44561,-103.78269,CO,Colorado,2726,08025,Crowley
38.10886,-105.42017,CO,Colorado,3830,08027,Custer
38.75096,-108.13761,CO,Colorado,13874,08029,Delta
39.69538,-105.03438,CO,Colorado,61296,08031,Denver
37.6641,-109.0334,CO,Colorado,1387,08033,Dolores
39.48222,-104.77885,CO,Colorado,55075,08035,Douglas
39.5966,-106.51437,CO,Colorado,10450,08037,Eagle
39.40956,-104.57247,CO,Colorado,12042,08039,Elbert
38.91152,-104.78023,CO,Colorado,45467,08041,El Paso
38.53864,-105.38622,CO,Colorado,29742,08043,Fremont
39.58391,-107.31363,CO,Colorado,15442,08045,Garfield
39.86909,-105.53235,CO,Colorado,4326,08047,Gilpin
40.17422,-105.95253,CO,Colorado,3715,08049,Grand
38.42496,-106.95639,CO,Colorado,9075,08051,Gunnison
38.01367,-107.29516,CO,Colorado,802,08053,Hinsdale
37.65595,-104.73158,CO,Colorado,4602,08055,Huerfano
40.67294,-106.35241,CO,Colorado,1300,08057,Jackson
39.61583,-105.06884,CO,Colorado,44795,08059,Jefferson
38.42386,-102.78359,CO,Colorado,962,08061,Kiowa
39.31882,-102.22605,CO,Colorado,5304,08063,Kit Carson
39.23391,-106.31467,CO,Colorado,7090,08065,Lake
37.44492,-107.85165,CO,Colorado,28308,08067,La Plata
40.5292,-105.03706,CO,Colorado,48419,08069,Larimer
37.17862,-104.51614,CO,Colorado,12480,08071,Las Animas
39.34789,-103.72898,CO,Colorado,3341,08073,Lincoln
40.6371,-103.23146,CO,Colorado,18857,08075,Logan
39.07912,-108.49159,CO,Colorado,28481,08077,Mesa
37.70747,-107.01535,CO,Colorado,671,08079,Mineral
40.73385,-107.68729,CO,Colorado,12921,08081,Moffat
37.31839,-108.76218,CO,Colorado,14459,08083,Montezuma
38.48717,-107.75847,CO,Colorado,22437,08085,Montrose
40.16996,-103.82645,CO,Colorado,16042,08087,Morgan
37.94029,-103.50553,CO,Colorado,9894,08089,Otero
38.12814,-107.75691,CO,Colorado,2682,08091,Ouray
39.47872,-105.52618,CO,Colorado,8042,08093,Park
40.51933,-102.29363,CO,Colorado,3045,08095,Phillips
39.15161,-106.77138,CO,Colorado,9921,08097,Pitkin
37.92617,-102.65974,CO,Colorado,9534,08099,Prowers
38.29455,-104.53374,CO,Colorado,30498,08101,Pueblo
40.08042,-107.76296,CO,Colorado,3834,08103,Rio Blanco
37.54986,-106.15118,CO,Colorado,7344,08105,Rio Grande
40.54802,-106.86712,CO,Colorado,16745,08107,Routt
37.81704,-106.06909,CO,Colorado,3447,08109,Saguache
37.78202,-107.63083,CO,Colorado,659,08111,San Juan
37.90381,-107.86951,CO,Colorado,4965,08113,San Miguel
40.87969,-102.18504,CO,Colorado,1537,08115,Sedgwick
39.47099,-106.0169,CO,Colorado,9627,08117,Summit
39.02833,-105.10805,CO,Colorado,11754,08119,Teller
40.08208,-103.21276,CO,Colorado,2558,08121,Washington
40.40277,-104.79253,CO,Colorado,52861,08123,Weld
40.13527,-102.68387,CO,Colorado,4698,08125,Yuma
41.05893,-73.54661,CT,Connecticut,63406,09001,Fairfield
41.68116,-72.94074,CT,Connecticut,60448,09003,Hartford
41.83781,-73.12873,CT,Connecticut,36482,09005,Litchfield
41.54764,-72.65489,CT,Connecticut,47648,09007,Middlesex
41.27396,-72.96713,CT,Connecticut,55564,09009,New Haven
41.54884,-72.08927,CT,Connecticut,37541,09011,New London
41.8364,-72.46061,CT,Connecticut,29219,09013,Tolland
41.70839,-72.20726,CT,Connecticut,20114,09015,Windham
39.17173,-75.47694,DE,Delaware,35055,10001,Kent
39.64699,-75.60632,DE,Delaware,59250,10003,New Castle
38.58114,-75.28159,DE,Delaware,24601,10005,Sussex
38.95241,-77.02278,DC,District of Columbia,58536,11001,District of Columbia
29.5969,-82.4066,FL,Florida,45842,12001,Alachua
30.24678,-82.11208,FL,Florida,13429,12003,Baker
30.20097,-85.5061,FL,Florida,38425,12005,Bay
29.93119,-82.12548,FL,Florida,15472,12007,Bradford
28.01564,-80.68232,FL,Florida,41870,12009,Brevard
26.02697,-80.24528,FL,Florida,63916,12011,Broward
30.37153,-85.08924,FL,Florida,7994,12013,Calhoun
26.99012,-82.0972,FL,Florida,28382,12015,Charlotte
28.74729,-82.52217,FL,Florida,16326,12017,Citrus
30.07894,-81.88322,FL,Florida,50815,12019,Clay
26.18805,-81.7105,FL,Florida,30005,12021,Collier
30.11074,-82.576,FL,Florida,22380,12023,Columbia
27.19002,-81.82628,FL,Florida,31055,12027,DeSoto
29.62867,-83.0699,FL,Florida,10223,12029,Dixie
30.26558,-81.74464,FL,Florida,59080,12031,Duval
30.53185,-87.22196,FL,Florida,37399,12033,Escambia
29.4841,-81.2179,FL,Florida,41616,12035,Flagler
29.90204,-84.63887,FL,Florida,4007,12037,Franklin
30.52228,-84.68182,FL,Florida,17486,12039,Gadsden
29.62387,-82.79225,FL,Florida,12154,12041,Gilchrist
26.88424,-81.19281,FL,Florida,6818,12043,Glades
30.00214,-85.17801,FL,Florida,9232,12045,Gulf
30.47855,-82.93597,FL,Florida,9223,12047,Hamilton
27.56255,-81.77286,FL,Florida,14742,12049,Hardee
26.75917,-81.43301,FL,Florida,20383,12051,Hendry
28.47933,-82.5082,FL,Florida,37129,12053,Hernando
27.62429,-81.46502,FL,Florida,24942,12055,Highlands
28.13415,-82.35798,FL,Florida,55034,12057,Hillsborough
30.85518,-85.72082,FL,Florida,14268,12059,Holmes
27.79375,-80.49116,FL,Florida,25366,12061,Indian River
30.84513,-85.22907,FL,Florida,11075,12063,Jackson
30.44055,-83.90898,FL,Florida,13193,12065,Jefferson
30.03678,-83.23398,FL,Florida,7312,12067,Lafayette
28.52611,-81.7567,FL,Florida,51847,12069,Lake
26.49314,-81.91968,FL,Florida,38251,12071,Lee
30.51435,-84.34363,FL,Florida,47359,12073,Leon
29.39798,-82.46059,FL,Florida,12071,12075,Levy
30.26044,-84.98132,FL,Florida,6460,12077,Liberty
30.46196,-83.43505,FL,Florida,11808,12079,Madison
27.57703,-82.54386,FL,Florida,39457,12081,Manatee
28.9965,-82.04473,FL,Florida,27454,12083,Marion
27.0525,-80.27166,FL,Florida,40405,12085,Martin
25.86562,-80.30249,FL,Florida,72248,12086,Miami-Dade
24.58549,-81.75449,FL,Florida,32891,12087,Monroe
30.60546,-81.49162,FL,Florida,31008,12089,Nassau
30.46868,-86.66717,FL,Florida,32485,12091,Okaloosa
27.14476,-80.94553,FL,Florida,23661,12093,Okeechobee
28.52825,-81.16717,FL,Florida,57881,12095,Orange
28.29642,-81.34485,FL,Florida,44142,12097,Osceola
26.71979,-80.1998,FL,Florida,65245,12099,Palm Beach
28.30188,-82.70517,FL,Florida,42619,12101,Pasco
28.03398,-82.7796,FL,Florida,37240,12103,Pinellas
28.12701,-82.02758,FL,Florida,44254,12105,Polk
29.69121,-81.71137,FL,Florida,27132,12107,Putnam
30.07586,-81.58724,FL,Florida,36917,12109,St. Johns
27.249,-80.38129,FL,Florida,61494,12111,St. Lucie
30.43717,-86.88927,FL,Florida,33671,12113,Santa Rosa
27.02802,-82.33552,FL,Florida,33001,12115,Sarasota
28.66743,-81.20178,FL,Florida,56349,12117,Seminole
28.91697,-81.99285,FL,Florida,45180,12119,Sumter
30.27522,-83.04974,FL,Florida,21363,12121,Suwannee
29.96859,-83.59698,FL,Florida,12442,12123,Taylor
30.02746,-82.39275,FL,Florida,12307,12125,Union
29.28542,-81.16355,FL,Florida,47552,12127,Volusia
30.18668,-84.30565,FL,Florida,26953,12129,Wakulla
30.84939,-86.20229,FL,Florida,16025,12131,Walton
30.61437,-85.57853,FL,Florida,17412,12133,Washington
31.77744,-82.34739,GA,Georgia,16084,13001,Appling
31.27711,-82.89012,GA,Georgia,4898,13003,Atkinson
31.54581,-82.44053,GA,Georgia,9848,13005,Bacon
31.32075,-84.40795,GA,Georgia,2238,13007,Baker
33.07615,-83.24656,GA,Georgia,43755,13009,Baldwin
34.36057,-83.46228,GA,Georgia,3268,13011,Banks
33.99623,-83.69949,GA,Georgia,37837,13013,Barrow
34.16708,-84.85534,GA,Georgia,38085,13015,Bartow
31.73354,-83.2161,GA,Georgia,18687,13017,Ben Hill
31.21657,-83.19141,GA,Georgia,10537,13019,Berrien
32.85012,-83.67584,GA,Georgia,31482,13021,Bibb
32.41366,-83.34473,GA,Georgia,13756,13023,Bleckley
31.17664,-81.97249,GA,Georgia,5237,13025,Brantley
30.76923,-83.55976,GA,Georgia,8709,13027,Brooks
31.8558,-81.26876,GA,Georgia,20495,13029,Bryan
32.39865,-81.82559,GA,Georgia,41139,13031,Bulloch
33.08044,-81.97338,GA,Georgia,13966,13033,Burke
33.237,-83.88475,GA,Georgia,2159,13035,Butts
31.56189,-84.74662,GA,Georgia,2440,13037,Calhoun
30.81738,-81.50711,GA,Georgia,20373,13039,Camden
32.40568,-82.07645,GA,Georgia,10877,13043,Candler
33.58016,-85.13241,GA,Georgia,34296,13045,Carroll
34.90444,-85.13622,GA,Georgia,41029,13047,Catoosa
30.8931,-82.00973,GA,Georgia,10097,13049,Charlton
31.99573,-81.23582,GA,Georgia,50954,13051,Chatham
32.37972,-84.90734,GA,Georgia,16044,13053,Chattahoochee
34.49891,-85.29878,GA,Georgia,16859,13055,Chattooga
34.1188,-84.45551,GA,Georgia,52380,13057,Cherokee
33.9396,-83.42878,GA,Georgia,40225,13059,Clarke
31.61953,-85.00606,GA,Georgia,2388,13061,Clay
33.56347,-84.19491,GA,Georgia,66140,13063,Clayton
31.04007,-82.76737,GA,Georgia,5844,13065,Clinch
33.99971,-84.46986,GA,Georgia,62136,13067,Cobb
31.54914,-82.82861,GA,Georgia,17494,13069,Coffee
31.19177,-83.84044,GA,Georgia,23617,13071,Colquitt
33.52292,-82.08528,GA,Georgia,50913,13073,Columbia
31.11841,-83.43765,GA,Georgia,10690,13075,Cook
33.38871,-84.85806,GA,Georgia,53008,13077,Coweta
32.6995,-84.06613,GA,Georgia,3566,13079,Crawford
31.93552,-83.7753,GA,Georgia,21938,13081,Crisp
34.91035,-85.52908,GA,Georgia,9800,13083,Dade
34.43888,-84.15074,GA,Georgia,26685,13085,Dawson
30.78522,-84.63844,GA,Georgia,11282,13087,Decatur
33.73761,-84.10618,GA,Georgia,52945,13089,DeKalb
32.18403,-83.20047,GA,Georgia,15383,13091,Dodge
32.09069,-83.78573,GA,Georgia,7420,13093,Dooly
31.50974,-84.04437,GA,Georgia,35565,13095,Dougherty
33.67236,-84.74554,GA,Georgia,61912,13097,Douglas
31.3321,-84.94157,GA,Georgia,8550,13099,Early
30.7065,-83.01903,GA,Georgia,1040,13101,Echols
32.296,-81.22976,GA,Georgia,19269,13103,Effingham
34.10316,-82.80444,GA,Georgia,16109,13105,Elbert
32.60047,-82.35203,GA,Georgia,13500,13107,Emanuel
32.17323,-81.92019,GA,Georgia,11090,13109,Evans
34.82426,-84.31999,GA,Georgia,11172,13111,Fannin
33.39449,-84.57083,GA,Georgia,35069,13113,Fayette
34.30358,-85.27154,GA,Georgia,39975,13115,Floyd
34.21614,-84.1806,GA,Georgia,54653,13117,Forsyth
34.44329,-83.08606,GA,Georgia,7232,13119,Franklin
33.62356,-84.52591,GA,Georgia,67602,13121,Fulton
34.7243,-84.54404,GA,Georgia,17297,13123,Gilmer
33.23621,-82.58915,GA,Georgia,2138,13125,Glascock
31.31154,-81.52381,GA,Georgia,28247,13127,Glynn
34.49658,-84.95569,GA,Georgia,40053,13129,Gordon
30.80208,-84.22116,GA,Georgia,15150,13131,Grady
33.55441,-83.19344,GA,Georgia,11001,13133,Greene
34.00303,-84.00745,GA,Georgia,80241,13135,Gwinnett
34.70783,-83.53648,GA,Georgia,12904,13137,Habersham
34.35006,-83.89365,GA,Georgia,41667,13139,Hall
33.26371,-83.00242,GA,Georgia,9656,13141,Hancock
33.77918,-85.01565,GA,Georgia,16807,13143,Haralson
32.63242,-85.00781,GA,Georgia,6679,13145,Harris
34.3626,-82.90879,GA,Georgia,16382,13147,Hart
33.28598,-85.1303,GA,Georgia,9433,13149,Heard
33.44884,-84.18335,GA,Georgia,49380,13151,Henry
32.58287,-83.6484,GA,Georgia,50163,13153,Houston
31.55876,-83.27379,GA,Georgia,6714,13155,Irwin
34.10679,-83.57735,GA,Georgia,22500,13157,Jackson
33.28906,-83.69711,GA,Georgia,9450,13159,Jasper
31.8265,-82.60805,GA,Georgia,14468,13161,Jeff Davis
33.02522,-82.37729,GA,Georgia,5728,13163,Jefferson
32.8018,-81.98903,GA,Georgia,7698,13165,Jenkins
32.72234,-82.70517,GA,Georgia,7395,13167,Johnson
33.01268,-83.56909,GA,Georgia,13993,13169,Jones
33.05731,-84.12512,GA,Georgia,13493,13171,Lamar
31.10395,-83.05415,GA,Georgia,6560,13173,Lanier
32.49307,-82.93909,GA,Georgia,28549,13175,Laurens
31.74224,-84.14212,GA,Georgia,23304,13177,Lee
31.83794,-81.60993,GA,Georgia,40302,13179,Liberty
33.77381,-82.43595,GA,Georgia,7676,13181,Lincoln
31.71718,-81.72853,GA,Georgia,9749,13183,Long
30.86926,-83.34394,GA,Georgia,34702,13185,Lowndes
34.5641,-84.01541,GA,Georgia,25296,13187,Lumpkin
33.51609,-82.51854,GA,Georgia,17201,13189,McDuffie
31.52645,-81.43706,GA,Georgia,7856,13191,McIntosh
32.28977,-83.96823,GA,Georgia,5666,13193,Macon
34.26569,-83.14788,GA,Georgia,8537,13195,Madison
32.30393,-84.51953,GA,Georgia,5662,13197,Marion
32.8786,-84.60481,GA,Georgia,6091,13199,Meriwether
31.15273,-84.67304,GA,Georgia,6166,13201,Miller
31.10137,-84.19315,GA,Georgia,9927,13205,Mitchell
33.29191,-83.96942,GA,Georgia,23218,13207,Monroe
32.23841,-82.4173,GA,Georgia,16594,13209,Montgomery
33.58404,-83.47196,GA,Georgia,11708,13211,Morgan
34.75018,-84.74898,GA,Georgia,33566,13213,Murray
32.48254,-84.90133,GA,Georgia,55332,13215,Muscogee
33.51712,-83.92942,GA,Georgia,51140,13217,Newton
33.79139,-83.38246,GA,Georgia,17065,13219,Oconee
33.88224,-83.04896,GA,Georgia,2988,13221,Oglethorpe
33.88586,-84.87327,GA,Georgia,45123,13223,Paulding
32.57032,-83.8904,GA,Georgia,18977,13225,Peach
34.45879,-84.43321,GA,Georgia,21145,13227,Pickens
31.30995,-82.25524,GA,Georgia,14735,13229,Pierce
33.17118,-84.39456,GA,Georgia,5943,13231,Pike
34.00204,-85.27502,GA,Georgia,24352,13233,Polk
32.2725,-83.50385,GA,Georgia,12998,13235,Pulaski
33.32052,-83.37448,GA,Georgia,20039,13237,Putnam
31.86404,-85.03994,GA,Georgia,2592,13239,Quitman
34.9087,-83.37164,GA,Georgia,7364,13241,Rabun
31.77755,-84.76738,GA,Georgia,5726,13243,Randolph
33.34496,-81.97238,GA,Georgia,57748,13245,Richmond
33.61125,-84.05635,GA,Georgia,31244,13247,Rockdale
32.26545,-84.30895,GA,Georgia,4962,13249,Schley
32.75619,-81.61254,GA,Georgia,12600,13251,Screven
30.95154,-84.8944,GA,Georgia,7871,13253,Seminole
33.2863,-84.27969,GA,Georgia,36769,13255,Spalding
34.5541,-83.32464,GA,Georgia,22230,13257,Stephens
32.03555,-84.83843,GA,Georgia,3675,13259,Stewart
32.06394,-84.13411,GA,Georgia,16019,13261,Sumter
32.68709,-84.5269,GA,Georgia,2134,13263,Talbot
33.5678,-82.87594,GA,Georgia,1767,13265,Taliaferro
31.91929,-81.96476,GA,Georgia,12864,13267,Tattnall
32.58493,-84.25478,GA,Georgia,4923,13269,Taylor
31.98878,-82.89112,GA,Georgia,8245,13271,Telfair
31.76134,-84.43681,GA,Georgia,8357,13273,Terrell
30.7685,-84.045,GA,Georgia,23835,13275,Thomas
31.44111,-83.44932,GA,Georgia,27153,13277,Tift
32.1519,-82.28906,GA,Georgia,11961,13279,Toombs
34.9088,-83.70728,GA,Georgia,6496,13281,Towns
32.40041,-82.5676,GA,Georgia,6424,13283,Treutlen
33.03625,-85.12366,GA,Georgia,30014,13285,Troup
31.71542,-83.68522,GA,Georgia,6474,13287,Turner
32.87127,-83.32838,GA,Georgia,6576,13289,Twiggs
34.85602,-83.97095,GA,Georgia,19490,13291,Union
32.87908,-84.33081,GA,Georgia,23490,13293,Upson
34.95231,-85.28253,GA,Georgia,29290,13295,Walker
33.81581,-83.8947,GA,Georgia,59451,13297,Walton
31.19789,-82.41346,GA,Georgia,21116,13299,Ware
33.37218,-82.65529,GA,Georgia,4368,13301,Warren
32.99243,-82.89681,GA,Georgia,10408,13303,Washington
31.65233,-81.94184,GA,Georgia,16133,13305,Wayne
32.05418,-84.52713,GA,Georgia,1838,13307,Webster
32.12818,-82.79818,GA,Georgia,4371,13309,Wheeler
34.61549,-83.79492,GA,Georgia,22679,13311,White
34.7916,-84.91408,GA,Georgia,53601,13313,Whitfield
31.97547,-83.34065,GA,Georgia,4816,13315,Wilcox
33.7226,-82.71738,GA,Georgia,7897,13317,Wilkes
32.7466,-83.17206,GA,Georgia,1841,13319,Wilkinson
31.53963,-83.87741,GA,Georgia,12354,13321,Worth
19.67306,-155.2228,HI,Hawaii,46165,15001,Hawaii
21.42424,-157.97898,HI,Hawaii,72289,15003,Honolulu
21.17087,-156.94743,HI,Hawaii,90,15005,Kalawao
22.09268,-159.38128,HI,Hawaii,18319,15007,Kauai
20.89769,-156.53765,HI,Hawaii,29549,15009,Maui
43.54978,-116.28929,ID,Idaho,50034,16001,Ada
44.91441,-116.56458,ID,Idaho,1925,16003,Adams
42.88941,-112.38465,ID,Idaho,37199,16005,Bannock
42.32833,-111.26807,ID,Idaho,3617,16007,Bear Lake
47.26323,-116.5511,ID,Idaho,6360,16009,Benewah
43.33608,-112.54511,ID,Idaho,27021,16011,Bingham
43.56677,-114.3155,ID,Idaho,10472,16013,Blaine
44.10591,-115.87728,ID,Idaho,1737,16015,Boise
48.46778,-116.52874,ID,Idaho,17076,16017,Bonner
43.55177,-111.89189,ID,Idaho,37966,16019,Bonneville
48.84391,-116.49055,ID,Idaho,7437,16021,Boundary
43.55471,-113.30089,ID,Idaho,1644,16023,Butte
43.48907,-114.80403,ID,Idaho,970,16025,Camas
43.49527,-116.61139,ID,Idaho,46224,16027,Canyon
42.76927,-111.52782,ID,Idaho,4097,16029,Caribou
42.43679,-113.82127,ID,Idaho,17226,16031,Cassia
44.30001,-112.27027,ID,Idaho,860,16033,Clark
46.49535,-116.15517,ID,Idaho,6092,16035,Clearwater
44.66892,-114.36489,ID,Idaho,2504,16037,Custer
43.43418,-115.50266,ID,Idaho,20789,16039,Elmore
42.16882,-111.75706,ID,Idaho,9258,16041,Franklin
43.97871,-111.76879,ID,Idaho,7406,16043,Fremont
43.92995,-116.50567,ID,Idaho,15422,16045,Gem
42.95286,-114.70822,ID,Idaho,6599,16047,Gooding
45.92139,-116.08486,ID,Idaho,5404,16049,Idaho
43.67201,-111.89302,ID,Idaho,19250,16051,Jefferson
42.72257,-114.43289,ID,Idaho,19782,16053,Jerome
47.71875,-116.97292,ID,Idaho,37245,16055,Kootenai
46.72268,-116.94172,ID,Idaho,25866,16057,Latah
45.00975,-113.8991,ID,Idaho,6270,16059,Lemhi
46.24473,-116.4521,ID,Idaho,759,16061,Lewis
43.07067,-114.41162,ID,Idaho,3330,16063,Lincoln
43.81596,-111.82301,ID,Idaho,34610,16065,Madison
42.69505,-113.58019,ID,Idaho,12268,16067,Minidoka
46.20696,-116.89629,ID,Idaho,34230,16069,Nez Perce
42.19026,-112.45835,ID,Idaho,4154,16071,Oneida
43.54059,-116.98142,ID,Idaho,4329,16073,Owyhee
44.07776,-116.70438,ID,Idaho,9881,16075,Payette
42.7067,-113.01384,ID,Idaho,6374,16077,Power
47.5096,-116.08104,ID,Idaho,3063,16079,Shoshone
43.61481,-111.17998,ID,Idaho,4970,16081,Teton
42.3932,-114.52218,ID,Idaho,52010,16083,Twin Falls
45.0989,-115.93486,ID,Idaho,5903,16085,Valley
44.36698,-116.9424,ID,Idaho,8583,16087,Washington
39.93159,-91.3866,IL,Illinois,33758,17001,Adams
37.06547,-89.22248,IL,Illinois,3147,17003,Alexander
38.8888,-89.42627,IL,Illinois,10355,17005,Bond
42.24513,-88.8407,IL,Illinois,34311,17007,Boone
39.97252,-90.75829,IL,Illinois,5637,17009,Brown
41.39353,-89.43823,IL,Illinois,11281,17011,Bureau
39.12105,-90.62535,IL,Illinois,1555,17013,Calhoun
42.12556,-90.12983,IL,Illinois,4431,17015,Carroll
39.98678,-90.40075,IL,Illinois,7955,17017,Cass
40.1089,-88.2435,IL,Illinois,36964,17019,Champaign
39.56083,-89.29022,IL,Illinois,16355,17021,Christian
39.3976,-87.69763,IL,Illinois,7395,17023,Clark
38.66518,-88.49902,IL,Illinois,6718,17025,Clay
38.64163,-89.33028,IL,Illinois,7589,17027,Clinton
39.50369,-88.16408,IL,Illinois,25594,17029,Coles
41.77567,-87.71176,IL,Illinois,113916,17031,Cook
38.99864,-87.75803,IL,Illinois,11467,17033,Crawford
39.29042,-88.00198,IL,Illinois,4759,17035,Cumberland
41.90082,-88.7548,IL,Illinois,46272,17037,DeKalb
40.14248,-88.96085,IL,Illinois,10015,17039,De Witt
39.79958,-88.29125,IL,Illinois,6216,17041,Douglas
41.87419,-88.01817,IL,Illinois,51468,17043,DuPage
39.601,-87.7013,IL,Illinois,12908,17045,Edgar
38.38188,-88.07484,IL,Illinois,3412,17047,Edwards
39.11953,-88.56417,IL,Illinois,19096,17049,Effingham
38.9546,-89.13061,IL,Illinois,10233,17051,Fayette
40.44296,-88.13625,IL,Illinois,5615,17053,Ford
37.89101,-88.91635,IL,Illinois,12626,17055,Franklin
40.54209,-90.02131,IL,Illinois,17839,17057,Fulton
37.71038,-88.15479,IL,Illinois,1841,17059,Gallatin
39.29411,-90.41699,IL,Illinois,3816,17061,Greene
41.36951,-88.43282,IL,Illinois,20332,17063,Grundy
38.07612,-88.53394,IL,Illinois,5748,17065,Hamilton
40.4085,-91.10393,IL,Illinois,4091,17067,Hancock
37.52852,-88.28678,IL,Illinois,1571,17069,Hardin
40.96403,-90.90614,IL,Illinois,2184,17071,Henderson
41.25995,-89.94172,IL,Illinois,14214,17073,Henry
40.79334,-87.73841,IL,Illinois,7190,17075,Iroquois
37.73828,-89.20843,IL,Illinois,27182,17077,Jackson
38.96892,-88.18259,IL,Illinois,5834,17079,Jasper
38.33121,-88.90262,IL,Illinois,24108,17081,Jefferson
39.11104,-90.32186,IL,Illinois,13002,17083,Jersey
42.4152,-90.39115,IL,Illinois,6821,17085,Jo Daviess
37.42597,-88.87523,IL,Illinois,5284,17087,Johnson
41.76429,-88.29409,IL,Illinois,76573,17089,Kane
41.11084,-87.89814,IL,Illinois,37157,17091,Kankakee
41.66526,-88.32321,IL,Illinois,36156,17093,Kendall
40.94467,-90.38468,IL,Illinois,34788,17095,Knox
42.35333,-87.86825,IL,Illinois,71714,17097,Lake
41.37256,-88.86337,IL,Illinois,24246,17099,LaSalle
38.74655,-87.63529,IL,Illinois,7536,17101,Lawrence
41.82967,-89.47908,IL,Illinois,23745,17103,Lee
40.88228,-88.62818,IL,Illinois,14460,17105,Livingston
40.13988,-89.37163,IL,Illinois,20405,17107,Logan
40.43534,-90.65455,IL,Illinois,22086,17109,McDonough
42.232,-88.32735,IL,Illinois,48550,17111,McHenry
40.52955,-88.95859,IL,Illinois,52879,17113,McLean
39.81509,-88.92533,IL,Illinois,35851,17115,Macon
39.28333,-89.88404,IL,Illinois,8354,17117,Macoupin
38.72613,-90.11068,IL,Illinois,43735,17119,Madison
38.51277,-89.14168,IL,Illinois,22415,17121,Marion
41.11701,-89.46636,IL,Illinois,2974,17123,Marshall
40.28956,-90.05432,IL,Illinois,5385,17125,Mason
37.22607,-88.71073,IL,Illinois,11603,17127,Massac
40.0219,-89.85914,IL,Illinois,6154,17129,Menard
41.20973,-90.72473,IL,Illinois,5627,17131,Mercer
38.31087,-90.15224,IL,Illinois,16609,17133,Monroe
39.17874,-89.671,IL,Illinois,8930,17135,Montgomery
39.73455,-90.22337,IL,Illinois,26992,17137,Morgan
39.59393,-88.58679,IL,Illinois,8017,17139,Moultrie
41.94846,-89.06437,IL,Illinois,14858,17141,Ogle
40.70574,-89.65364,IL,Illinois,31647,17143,Peoria
38.01222,-89.24993,IL,Illinois,9208,17145,Perry
40.0269,-88.57954,IL,Illinois,7433,17147,Piatt
39.5936,-90.77418,IL,Illinois,6353,17149,Pike
37.3802,-88.54269,IL,Illinois,3033,17151,Pope
37.12854,-89.21531,IL,Illinois,1456,17153,Pulaski
41.25385,-89.22434,IL,Illinois,2452,17155,Putnam
37.94609,-89.78739,IL,Illinois,10037,17157,Randolph
38.71233,-88.09042,IL,Illinois,12218,17159,Richland
41.482,-90.49016,IL,Illinois,45099,17161,Rock Island
38.60337,-89.91603,IL,Illinois,31348,17163,St. Clair
37.70725,-88.53816,IL,Illinois,12930,17165,Saline
39.774,-89.68514,IL,Illinois,39831,17167,Sangamon
40.13621,-90.55884,IL,Illinois,5602,17169,Schuyler
39.62158,-90.47134,IL,Illinois,3192,17171,Scott
39.41129,-88.80426,IL,Illinois,7538,17173,Shelby
41.06053,-89.7294,IL,Illinois,2197,17175,Stark
42.31635,-89.63525,IL,Illinois,31651,17177,Stephenson
40.54087,-89.61861,IL,Illinois,43810,17179,Tazewell
37.45662,-89.18699,IL,Illinois,7276,17181,Union
40.13617,-87.63648,IL,Illinois,37290,17183,Vermilion
38.41648,-87.85594,IL,Illinois,10183,17185,Wabash
40.92358,-90.64788,IL,Illinois,11643,17187,Warren
38.33016,-89.40006,IL,Illinois,5387,17189,Washington
38.368,-88.35644,IL,Illinois,8867,17191,Wayne
38.0734,-88.13265,IL,Illinois,7657,17193,White
41.84394,-89.73537,IL,Illinois,21934,17195,Whiteside
41.70022,-88.07509,IL,Illinois,52911,17197,Will
37.71804,-88.90775,IL,Illinois,26948,17199,Williamson
42.28364,-89.00326,IL,Illinois,30439,17201,Winnebago
40.80917,-89.41402,IL,Illinois,12085,17203,Woodford
40.82852,-84.9401,IN,Indiana,18777,18001,Adams
41.15191,-85.0461,IN,Indiana,33604,18003,Allen
39.15769,-85.99067,IN,Indiana,41662,18005,Bartholomew
40.61421,-87.33035,IN,Indiana,3623,18007,Benton
40.4567,-85.34818,IN,Indiana,9828,18009,Blackford
39.98433,-86.28386,IN,Indiana,24512,18011,Boone
39.17381,-86.2424,IN,Indiana,7505,18013,Brown
40.60636,-86.6459,IN,Indiana,8048,18015,Carroll
40.76005,-86.37642,IN,Indiana,28866,18017,Cass
38.33517,-85.69713,IN,Indiana,44722,18019,Clark
39.52584,-87.12124,IN,Indiana,19215,18021,Clay
40.29749,-86.49187,IN,Indiana,23891,18023,Clinton
38.38357,-86.36726,IN,Indiana,2669,18025,Crawford
38.6624,-87.1724,IN,Indiana,17535,18027,Daviess
39.15644,-84.87429,IN,Indiana,22932,18029,Dearborn
39.32318,-85.47993,IN,Indiana,20832,18031,Decatur
41.34277,-85.03938,IN,Indiana,18630,18033,DeKalb
40.23311,-85.46057,IN,Indiana,30516,18035,Delaware
38.41951,-86.93579,IN,Indiana,21009,18037,Dubois
41.72343,-85.97468,IN,Indiana,40263,18039,Elkhart
39.62981,-85.16411,IN,Indiana,23429,18041,Fayette
38.28829,-85.84664,IN,Indiana,47472,18043,Floyd
40.30478,-87.20377,IN,Indiana,6321,18045,Fountain
39.41774,-84.98153,IN,Indiana,10188,18047,Franklin
41.07181,-86.25093,IN,Indiana,14691,18049,Fulton
38.34528,-87.57539,IN,Indiana,12352,18051,Gibson
40.51862,-85.64265,IN,Indiana,24177,18053,Grant
39.02176,-86.87337,IN,Indiana,9525,18055,Greene
39.96583,-86.17108,IN,Indiana,42234,18057,Hamilton
39.80339,-85.77069,IN,Indiana,38543,18059,Hancock
38.19537,-86.14434,IN,Indiana,16722,18061,Harrison
39.86506,-86.38258,IN,Indiana,33662,18063,Hendricks
39.93024,-85.36908,IN,Indiana,30243,18065,Henry
40.5253,-86.15659,IN,Indiana,37633,18067,Howard
40.87862,-85.49629,IN,Indiana,27221,18069,Huntington
38.96582,-85.93098,IN,Indiana,28770,18071,Jackson
41.18408,-87.23178,IN,Indiana,13565,18073,Jasper
40.41856,-84.96003,IN,Indiana,12226,18075,Jay
38.81847,-85.35148,IN,Indiana,21944,18077,Jefferson
39.01233,-85.62764,IN,Indiana,20911,18079,Jennings
39.59509,-86.11657,IN,Indiana,48555,18081,Johnson
38.62838,-87.5041,IN,Indiana,26770,18083,Knox
41.20772,-85.87107,IN,Indiana,21338,18085,Kosciusko
41.63489,-85.36835,IN,Indiana,12039,18087,LaGrange
41.40259,-87.32767,IN,Indiana,60619,18089,Lake
41.60735,-86.72158,IN,Indiana,43650,18091,LaPorte
38.86267,-86.45106,IN,Indiana,27831,18093,Lawrence
40.14998,-85.62525,IN,Indiana,19414,18095,Madison
39.6761,-86.13146,IN,Indiana,57086,18097,Marion
41.3563,-86.32673,IN,Indiana,23599,18099,Marshall
38.65258,-86.91013,IN,Indiana,8495,18101,Martin
40.76013,-86.06308,IN,Indiana,23766,18103,Miami
39.08592,-86.45156,IN,Indiana,41011,18105,Monroe
40.03865,-86.89671,IN,Indiana,27937,18107,Montgomery
39.44797,-86.43051,IN,Indiana,30921,18109,Morgan
41.10781,-87.42182,IN,Indiana,3336,18111,Newton
41.4502,-85.27404,IN,Indiana,15062,18113,Noble
38.9301,-84.93658,IN,Indiana,5480,18115,Ohio
38.51759,-86.45591,IN,Indiana,7688,18117,Orange
39.2838,-86.79023,IN,Indiana,11471,18119,Owen
39.75343,-87.162,IN,Indiana,8890,18121,Parke
38.03703,-86.69934,IN,Indiana,10932,18123,Perry
38.46999,-87.30424,IN,Indiana,6021,18125,Pike
41.45914,-87.00339,IN,Indiana,39687,18127,Porter
37.93261,-87.90612,IN,Indiana,13427,18129,Posey
41.06264,-86.65938,IN,Indiana,7139,18131,Pulaski
39.65835,-86.89229,IN,Indiana,20992,18133,Putnam
40.16902,-84.98724,IN,Indiana,8470,18135,Randolph
39.29201,-85.21583,IN,Indiana,11727,18137,Ripley
39.60273,-85.429,IN,Indiana,11190,18139,Rush
41.61692,-86.13891,IN,Indiana,30759,18141,St. Joseph
38.68491,-85.8436,IN,Indiana,14795,18143,Scott
39.52752,-85.77395,IN,Indiana,27816,18145,Shelby
37.88622,-87.10551,IN,Indiana,5671,18147,Spencer
41.28578,-86.61667,IN,Indiana,11263,18149,Starke
41.65272,-85.00797,IN,Indiana,18029,18151,Steuben
39.09091,-87.4103,IN,Indiana,8430,18153,Sullivan
38.79438,-85.09909,IN,Indiana,5250,18155,Switzerland
40.48696,-86.98648,IN,Indiana,66972,18157,Tippecanoe
40.28611,-86.06745,IN,Indiana,9324,18159,Tipton
39.62773,-84.91944,IN,Indiana,5879,18161,Union
37.95755,-87.52111,IN,Indiana,34107,18163,Vanderburgh
39.67855,-87.4636,IN,Indiana,10085,18165,Vermillion
39.35111,-87.40744,IN,Indiana,34532,18167,Vigo
40.78605,-85.82911,IN,Indiana,16759,18169,Wabash
40.1292,-87.40884,IN,Indiana,5357,18171,Warren
37.95542,-87.35554,IN,Indiana,34423,18173,Warrick
38.61184,-86.09584,IN,Indiana,15014,18175,Washington
39.83163,-84.88908,IN,Indiana,46875,18177,Wayne
40.71846,-85.17147,IN,Indiana,14645,18179,Wells
40.78052,-86.74994,IN,Indiana,15003,18181,White
41.14912,-85.47485,IN,Indiana,23080,18183,Whitley
41.30327,-94.39943,IA,Iowa,2740,19001,Adair
41.00973,-94.76344,IA,Iowa,2824,19003,Adams
43.2708,-91.48449,IA,Iowa,6303,19005,Allamakee
40.71759,-92.91073,IA,Iowa,7847,19007,Appanoose
41.75792,-94.92349,IA,Iowa,3325,19009,Audubon
42.17238,-92.00561,IA,Iowa,7643,19011,Benton
42.53311,-92.48894,IA,Iowa,42031,19013,Black Hawk
42.08721,-93.8566,IA,Iowa,16287,19015,Boone
42.76265,-92.43273,IA,Iowa,12131,19017,Bremer
42.47639,-91.89356,IA,Iowa,8648,19019,Buchanan
42.65775,-95.16436,IA,Iowa,12756,19021,Buena Vista
42.58037,-92.77191,IA,Iowa,2841,19023,Butler
42.52767,-94.52741,IA,Iowa,2500,19025,Calhoun
42.06615,-94.86957,IA,Iowa,12373,19027,Carroll
41.41596,-95.00179,IA,Iowa,8494,19029,Cass
41.75038,-91.14065,IA,Iowa,5029,19031,Cedar
43.15371,-93.20016,IA,Iowa,29837,19033,Cerro Gordo
42.74444,-95.56191,IA,Iowa,6642,19035,Cherokee
43.08817,-92.32251,IA,Iowa,5488,19037,Chickasaw
41.03204,-93.76613,IA,Iowa,6812,19039,Clarke
43.15289,-95.14724,IA,Iowa,12691,19041,Clay
42.74045,-91.11954,IA,Iowa,3136,19043,Clayton
41.90219,-90.25075,IA,Iowa,28293,19045,Clinton
42.03038,-95.35836,IA,Iowa,9838,19047,Crawford
41.59562,-93.87241,IA,Iowa,16069,19049,Dallas
40.73628,-92.41218,IA,Iowa,7098,19051,Davis
40.64214,-93.98208,IA,Iowa,2969,19053,Decatur
42.48979,-91.45472,IA,Iowa,8222,19055,Delaware
40.855,-91.11202,IA,Iowa,29723,19057,Des Moines
43.4425,-95.08759,IA,Iowa,8031,19059,Dickinson
42.54498,-90.6938,IA,Iowa,43173,19061,Dubuque
43.40359,-94.80507,IA,Iowa,7661,19063,Emmet
42.69041,-91.9348,IA,Iowa,7238,19065,Fayette
43.08119,-92.66095,IA,Iowa,10344,19067,Floyd
42.74142,-93.2211,IA,Iowa,5776,19069,Franklin
40.7703,-95.62757,IA,Iowa,1783,19071,Fremont
42.01447,-94.3768,IA,Iowa,5228,19073,Greene
42.35673,-92.79394,IA,Iowa,3313,19075,Grundy
41.69628,-94.34841,IA,Iowa,2824,19077,Guthrie
42.46184,-93.82268,IA,Iowa,9165,19079,Hamilton
43.10935,-93.61746,IA,Iowa,4159,19081,Hancock
42.50703,-93.24705,IA,Iowa,6853,19083,Hardin
41.55841,-95.91921,IA,Iowa,5245,19085,Harrison
40.98968,-91.58718,IA,Iowa,12357,19087,Henry
43.37403,-92.1112,IA,Iowa,5967,19089,Howard
42.71503,-94.22545,IA,Iowa,5869,19091,Humboldt
42.32447,-95.46454,IA,Iowa,2867,19093,Ida
41.6476,-92.01397,IA,Iowa,4527,19095,Iowa
42.10336,-90.68143,IA,Iowa,8658,19097,Jackson
41.71024,-93.03831,IA,Iowa,20417,19099,Jasper
41.01982,-91.92903,IA,Iowa,13247,19101,Jefferson
41.63544,-91.5016,IA,Iowa,32230,19103,Johnson
42.11851,-91.28539,IA,Iowa,8682,19105,Jones
41.32085,-92.19297,IA,Iowa,3028,19107,Keokuk
43.0739,-94.22017,IA,Iowa,7137,19109,Kossuth
40.66823,-91.34873,IA,Iowa,13105,19111,Lee
42.02274,-91.65977,IA,Iowa,40149,19113,Linn
41.16719,-91.15658,IA,Iowa,3570,19115,Louisa
41.03565,-93.30102,IA,Iowa,6493,19117,Lucas
43.4283,-96.16716,IA,Iowa,3844,19119,Lyon
41.32937,-94.05411,IA,Iowa,8251,19121,Madison
41.27193,-92.66047,IA,Iowa,15055,19123,Mahaska
41.42364,-92.8983,IA,Iowa,13939,19125,Marion
42.0503,-92.90058,IA,Iowa,31591,19127,Marshall
41.0428,-95.71687,IA,Iowa,9236,19129,Mills
43.2994,-92.81902,IA,Iowa,5613,19131,Mitchell
42.0365,-96.08046,IA,Iowa,3712,19133,Monona
41.02676,-92.81433,IA,Iowa,5976,19135,Monroe
41.01629,-95.2313,IA,Iowa,7035,19137,Montgomery
41.43871,-91.05847,IA,Iowa,30678,19139,Muscatine
43.18336,-95.86572,IA,Iowa,6193,19141,O'Brien
43.41257,-95.73207,IA,Iowa,3593,19143,Osceola
40.74689,-95.04959,IA,Iowa,7297,19145,Page
43.11738,-94.70157,IA,Iowa,4541,19147,Palo Alto
42.80163,-96.17911,IA,Iowa,12336,19149,Plymouth
42.71668,-94.69862,IA,Iowa,2181,19151,Pocahontas
41.61629,-93.54711,IA,Iowa,36207,19153,Polk
41.23202,-95.77811,IA,Iowa,36376,19155,Pottawattamie
41.7313,-92.71481,IA,Iowa,11536,19157,Poweshiek
40.69108,-94.21527,IA,Iowa,2303,19159,Ringgold
42.43266,-94.98657,IA,Iowa,2855,19161,Sac
41.56601,-90.46662,IA,Iowa,34754,19163,Scott
41.64756,-95.29293,IA,Iowa,6703,19165,Shelby
43.08426,-96.21239,IA,Iowa,8249,19167,Sioux
42.03362,-93.58827,IA,Iowa,29359,19169,Story
41.92296,-92.58861,IA,Iowa,4504,19171,Tama
40.6704,-94.7007,IA,Iowa,2305,19173,Taylor
41.07973,-94.39124,IA,Iowa,9590,19175,Union
40.74008,-91.94187,IA,Iowa,2027,19177,Van Buren
41.03574,-92.43151,IA,Iowa,30220,19179,Wapello
41.33361,-93.57961,IA,Iowa,19556,19181,Warren
41.29842,-91.71326,IA,Iowa,9173,19183,Washington
40.75342,-93.31808,IA,Iowa,2507,19185,Wayne
42.49287,-94.19257,IA,Iowa,29078,19187,Webster
43.26285,-93.6634,IA,Iowa,5848,19189,Winnebago
43.35368,-91.76474,IA,Iowa,13864,19191,Winneshiek
42.46616,-96.32083,IA,Iowa,26544,19193,Woodbury
43.44539,-93.25407,IA,Iowa,3018,19195,Worth
42.65194,-93.91181,IA,Iowa,4130,19197,Wright
37.93754,-95.40782,KS,Kansas,7974,20001,Allen
38.28231,-95.27322,KS,Kansas,5115,20003,Anderson
39.5402,-95.13889,KS,Kansas,13755,20005,Atchison
37.27084,-98.65218,KS,Kansas,2506,20007,Barber
38.35287,-98.79363,KS,Kansas,19699,20009,Barton
37.82353,-94.76156,KS,Kansas,12325,20011,Bourbon
39.86798,-95.54648,KS,Kansas,4828,20013,Brown
37.84881,-96.7987,KS,Kansas,17969,20015,Butler
38.29566,-96.50629,KS,Kansas,1232,20017,Chase
37.13826,-96.21821,KS,Kansas,1841,20019,Chautauqua
37.03315,-94.78589,KS,Kansas,5836,20021,Cherokee
39.79425,-101.8363,KS,Kansas,2016,20023,Cheyenne
37.18654,-99.79219,KS,Kansas,1117,20025,Clark
39.33189,-97.18704,KS,Kansas,6019,20027,Clay
39.55446,-97.6458,KS,Kansas,6605,20029,Cloud
38.21417,-95.75079,KS,Kansas,4007,20031,Coffey
37.17084,-99.27479,KS,Kansas,1063,20033,Comanche
37.0651,-96.99179,KS,Kansas,16535,20035,Cowley
37.39508,-94.71046,KS,Kansas,24786,20037,Crawford
39.8338,-100.56486,KS,Kansas,2317,20039,Decatur
38.9558,-97.22134,KS,Kansas,10141,20041,Dickinson
39.78552,-94.97317,KS,Kansas,2520,20043,Doniphan
39.02888,-95.20853,KS,Kansas,28417,20045,Douglas
37.93351,-99.45756,KS,Kansas,1769,20047,Edwards
37.48861,-96.29885,KS,Kansas,1034,20049,Elk
38.8776,-99.34833,KS,Kansas,23797,20051,Ellis
38.75449,-98.21984,KS,Kansas,3674,20053,Ellsworth
38.03484,-100.76704,KS,Kansas,33696,20055,Finney
37.72528,-100.05496,KS,Kansas,30559,20057,Ford
38.62062,-95.27569,KS,Kansas,16170,20059,Franklin
38.98511,-96.8031,KS,Kansas,26746,20061,Geary
38.98801,-100.24408,KS,Kansas,1399,20063,Gove
39.35816,-99.84437,KS,Kansas,1729,20065,Graham
37.58509,-101.31456,KS,Kansas,7878,20067,Grant
37.97105,-100.32684,KS,Kansas,2954,20069,Gray
38.48065,-101.80605,KS,Kansas,1247,20071,Greeley
37.86082,-96.34465,KS,Kansas,3644,20073,Greenwood
38.00558,-101.82808,KS,Kansas,2436,20075,Hamilton
37.10384,-98.07254,KS,Kansas,2626,20077,Harper
38.07349,-97.28876,KS,Kansas,21852,20079,Harvey
37.54986,-100.84549,KS,Kansas,2255,20081,Haskell
38.09101,-100.01033,KS,Kansas,1407,20083,Hodgeman
39.46683,-95.69883,KS,Kansas,5879,20085,Jackson
39.19961,-95.55025,KS,Kansas,3361,20087,Jefferson
39.79257,-98.22586,KS,Kansas,1157,20089,Jewell
38.83454,-94.77799,KS,Kansas,74411,20091,Johnson
38.00297,-101.31028,KS,Kansas,2878,20093,Kearny
37.61658,-98.10825,KS,Kansas,4354,20095,Kingman
37.57556,-99.31557,KS,Kansas,1167,20097,Kiowa
37.34613,-95.26185,KS,Kansas,13006,20099,Labette
38.47189,-100.43142,KS,Kansas,1416,20101,Lane
39.28288,-94.99412,KS,Kansas,35475,20103,Leavenworth
39.0227,-98.16533,KS,Kansas,1980,20105,Lincoln
38.35272,-94.74359,KS,Kansas,3404,20107,Linn
39.04073,-100.8528,KS,Kansas,2544,20109,Logan
38.41305,-96.21801,KS,Kansas,28492,20111,Lyon
38.38362,-97.69809,KS,Kansas,15168,20113,McPherson
38.34424,-97.22651,KS,Kansas,3942,20115,Marion
39.85319,-96.63239,KS,Kansas,4375,20117,Marshall
37.17639,-100.31691,KS,Kansas,2227,20119,Meade
38.5733,-94.86454,KS,Kansas,12360,20121,Miami
39.39875,-98.08543,KS,Kansas,4721,20123,Mitchell
37.20891,-95.7534,KS,Kansas,13556,20125,Montgomery
38.65265,-96.47349,KS,Kansas,3504,20127,Morris
37.04802,-101.86802,KS,Kansas,2558,20129,Morton
39.88472,-95.83667,KS,Kansas,3725,20131,Nemaha
37.64838,-95.4598,KS,Kansas,11299,20133,Neosho
38.39494,-99.95135,KS,Kansas,1740,20135,Ness
39.8248,-99.9534,KS,Kansas,4362,20137,Norton
38.61194,-95.84035,KS,Kansas,3833,20139,Osage
39.37717,-98.73596,KS,Kansas,1728,20141,Osborne
39.14259,-97.69275,KS,Kansas,2904,20143,Ottawa
38.1849,-99.12235,KS,Kansas,5905,20145,Pawnee
39.82823,-99.32053,KS,Kansas,3483,20147,Phillips
39.22933,-96.30431,KS,Kansas,7617,20149,Pottawatomie
37.63357,-98.77254,KS,Kansas,8203,20151,Pratt
39.80575,-101.10589,KS,Kansas,1612,20153,Rawlins
37.98308,-97.92969,KS,Kansas,27212,20155,Reno
39.8408,-97.63121,KS,Kansas,2563,20157,Republic
38.37451,-98.19308,KS,Kansas,4334,20159,Rice
39.1512,-96.53124,KS,Kansas,43850,20161,Riley
39.21143,-99.34919,KS,Kansas,2615,20163,Rooks
38.5831,-99.34511,KS,Kansas,1467,20165,Rush
38.85039,-98.88161,KS,Kansas,5162,20167,Russell
38.834,-97.64583,KS,Kansas,51499,20169,Saline
38.51753,-100.90555,KS,Kansas,4973,20171,Scott
37.70199,-97.4364,KS,Kansas,44707,20173,Sedgwick
37.10184,-100.90783,KS,Kansas,22073,20175,Seward
39.01154,-95.84949,KS,Kansas,31354,20177,Shawnee
39.37702,-100.3587,KS,Kansas,1724,20179,Sheridan
39.34596,-101.7586,KS,Kansas,5476,20181,Sherman
39.82406,-98.79269,KS,Kansas,2096,20183,Smith
38.03365,-98.79384,KS,Kansas,1915,20185,Stafford
37.55294,-101.68846,KS,Kansas,1976,20187,Stanton
37.16224,-101.35249,KS,Kansas,4981,20189,Stevens
37.26012,-97.41442,KS,Kansas,9541,20191,Sumner
39.39603,-101.05959,KS,Kansas,6502,20193,Thomas
39.00387,-99.91056,KS,Kansas,2359,20195,Trego
38.97012,-96.31049,KS,Kansas,1721,20197,Wabaunsee
38.8842,-101.76406,KS,Kansas,1016,20199,Wallace
39.82744,-97.06588,KS,Kansas,1626,20201,Washington
38.47222,-101.38518,KS,Kansas,1962,20203,Wichita
37.54955,-95.86049,KS,Kansas,3954,20205,Wilson
37.87493,-95.73668,KS,Kansas,2230,20207,Woodson
39.11296,-94.68955,KS,Kansas,29282,20209,Wyandotte
37.11093,-85.28854,KY,Kentucky,15925,21001,Adair
36.77559,-86.18472,KY,Kentucky,16277,21003,Allen
38.00322,-84.98494,KY,Kentucky,21125,21005,Anderson
36.97407,-89.00623,KY,Kentucky,2419,21007,Ballard
36.94755,-85.9166,KY,Kentucky,30349,21009,Barren
38.15445,-83.76738,KY,Kentucky,6564,21011,Bath
36.63434,-83.71669,KY,Kentucky,13570,21013,Bell
39.00114,-84.65281,KY,Kentucky,49968,21015,Boone
38.20598,-84.2273,KY,Kentucky,18220,21017,Bourbon
38.42109,-82.725,KY,Kentucky,21712,21019,Boyd
37.63785,-84.80074,KY,Kentucky,24280,21021,Boyle
38.65389,-84.10655,KY,Kentucky,4122,21023,Bracken
37.53587,-83.29614,KY,Kentucky,10957,21025,Breathitt
37.78114,-86.50879,KY,Kentucky,5939,21027,Breckinridge
37.9716,-85.67573,KY,Kentucky,32726,21029,Bullitt
37.21978,-86.669,KY,Kentucky,10602,21031,Butler
37.13022,-87.85471,KY,Kentucky,11331,21033,Caldwell
36.62034,-88.28387,KY,Kentucky,29655,21035,Calloway
39.07384,-84.48277,KY,Kentucky,20869,21037,Campbell
36.87162,-88.9913,KY,Kentucky,2422,21039,Carlisle
38.66355,-85.16782,KY,Kentucky,7457,21041,Carroll
38.33259,-82.9724,KY,Kentucky,14535,21043,Carter
37.30381,-84.95386,KY,Kentucky,10026,21045,Casey
36.8788,-87.46244,KY,Kentucky,42479,21047,Christian
37.96943,-84.14517,KY,Kentucky,35262,21049,Clark
37.14587,-83.74061,KY,Kentucky,19143,21051,Clay
36.73159,-85.13322,KY,Kentucky,10216,21053,Clinton
37.35403,-88.09389,KY,Kentucky,8421,21055,Crittenden
36.78188,-85.37894,KY,Kentucky,6558,21057,Cumberland
37.74038,-87.24615,KY,Kentucky,42440,21059,Daviess
37.20975,-86.2491,KY,Kentucky,4236,21061,Edmonson
38.09415,-83.10473,KY,Kentucky,5042,21063,Elliott
37.68573,-83.98617,KY,Kentucky,13061,21065,Estill
37.98388,-84.48828,KY,Kentucky,35227,21067,Fayette
38.40895,-83.72604,KY,Kentucky,7153,21069,Fleming
37.66105,-82.76355,KY,Kentucky,11451,21071,Floyd
38.23397,-84.88086,KY,Kentucky,49566,21073,Franklin
36.54755,-88.87481,KY,Kentucky,4627,21075,Fulton
38.79219,-84.82369,KY,Kentucky,3540,21077,Gallatin
37.6792,-84.58843,KY,Kentucky,14096,21079,Garrard
38.70513,-84.65958,KY,Kentucky,10785,21081,Grant
36.73285,-88.63942,KY,Kentucky,23182,21083,Graves
37.47598,-86.31459,KY,Kentucky,15349,21085,Grayson
37.22893,-85.53082,KY,Kentucky,8869,21087,Green
38.53685,-82.91904,KY,Kentucky,10279,21089,Greenup
37.83487,-86.76309,KY,Kentucky,4810,21091,Hancock
37.70499,-85.8358,KY,Kentucky,48194,21093,Hardin
36.75953,-83.34993,KY,Kentucky,5150,21095,Harlan
38.41612,-84.28683,KY,Kentucky,15886,21097,Harrison
37.31399,-85.92165,KY,Kentucky,5840,21099,Hart
37.80343,-87.51678,KY,Kentucky,38192,21101,Henderson
38.37989,-85.1718,KY,Kentucky,3789,21103,Henry
36.68755,-88.99122,KY,Kentucky,3418,21105,Hickman
37.3292,-87.47831,KY,Kentucky,26916,21107,Hopkins
37.45707,-84.02863,KY,Kentucky,8251,21109,Jackson
38.15189,-85.7825,KY,Kentucky,45291,21111,Jefferson
37.87301,-84.56447,KY,Kentucky,40503,21113,Jessamine
37.8239,-82.79746,KY,Kentucky,6916,21115,Johnson
39.02887,-84.56144,KY,Kentucky,38940,21117,Kenton
37.32615,-82.97337,KY,Kentucky,2553,21119,Knott
36.88215,-83.88646,KY,Kentucky,11132,21121,Knox
37.571,-85.70853,KY,Kentucky,8706,21123,Larue
37.13751,-84.12616,KY,Kentucky,21875,21125,Laurel
38.06401,-82.66635,KY,Kentucky,11730,21127,Lawrence
37.58224,-83.71104,KY,Kentucky,7538,21129,Lee
37.19765,-83.4101,KY,Kentucky,3556,21131,Leslie
37.13537,-82.85273,KY,Kentucky,8064,21133,Letcher
38.52673,-83.38774,KY,Kentucky,7852,21135,Lewis
37.51612,-84.66965,KY,Kentucky,11612,21137,Lincoln
37.05919,-88.47484,KY,Kentucky,2336,21139,Livingston
36.85711,-86.88076,KY,Kentucky,14471,21141,Logan
37.04145,-88.02229,KY,Kentucky,5298,21143,Lyon
37.01042,-88.58563,KY,Kentucky,29683,21145,McCracken
36.68069,-84.39841,KY,Kentucky,5103,21147,McCreary
37.58745,-87.30164,KY,Kentucky,4037,21149,McLean
37.76658,-84.3137,KY,Kentucky,55803,21151,Madison
37.72848,-83.08566,KY,Kentucky,11979,21153,Magoffin
37.55846,-85.23808,KY,Kentucky,12355,21155,Marion
36.85642,-88.33455,KY,Kentucky,19305,21157,Marshall
37.82735,-82.53915,KY,Kentucky,6414,21159,Martin
38.60007,-83.77847,KY,Kentucky,14228,21161,Mason
37.97261,-86.16632,KY,Kentucky,11583,21163,Meade
37.93704,-83.63355,KY,Kentucky,3328,21165,Menifee
37.7896,-84.89167,KY,Kentucky,19334,21167,Mercer
36.99116,-85.58874,KY,Kentucky,7026,21169,Metcalfe
36.7241,-85.67361,KY,Kentucky,8145,21171,Monroe
38.06565,-83.94762,KY,Kentucky,20779,21173,Montgomery
37.94287,-83.21962,KY,Kentucky,10985,21175,Morgan
37.14413,-87.18464,KY,Kentucky,11747,21177,Muhlenberg
37.80452,-85.46497,KY,Kentucky,28245,21179,Nelson
38.32373,-84.02449,KY,Kentucky,7153,21181,Nicholas
37.35244,-86.8709,KY,Kentucky,8205,21183,Ohio
38.42771,-85.39478,KY,Kentucky,22863,21185,Oldham
38.48922,-84.81944,KY,Kentucky,7080,21187,Owen
37.42587,-83.64039,KY,Kentucky,5239,21189,Owsley
38.64992,-84.33042,KY,Kentucky,7265,21191,Pendleton
37.2983,-83.19129,KY,Kentucky,17252,21193,Perry
37.51609,-82.51725,KY,Kentucky,23298,21195,Pike
37.82391,-83.77924,KY,Kentucky,6612,21197,Powell
37.15642,-84.52524,KY,Kentucky,22894,21199,Pulaski
38.51063,-84.05973,KY,Kentucky,2073,21201,Robertson
37.34836,-84.32157,KY,Kentucky,9300,21203,Rockcastle
38.20548,-83.4164,KY,Kentucky,20329,21205,Rowan
37.05509,-85.03746,KY,Kentucky,12573,21207,Russell
38.24674,-84.55326,KY,Kentucky,41342,21209,Scott
38.21651,-85.20683,KY,Kentucky,28025,21211,Shelby
36.72444,-86.56599,KY,Kentucky,16785,21213,Simpson
38.04374,-85.36911,KY,Kentucky,14292,21215,Spencer
37.38734,-85.37359,KY,Kentucky,24312,21217,Taylor
36.89552,-87.17904,KY,Kentucky,6844,21219,Todd
36.82147,-87.83898,KY,Kentucky,13422,21221,Trigg
38.59161,-85.32669,KY,Kentucky,5084,21223,Trimble
37.66397,-87.93653,KY,Kentucky,8324,21225,Union
37.06376,-86.47617,KY,Kentucky,55648,21227,Warren
37.71603,-85.21602,KY,Kentucky,8276,21229,Washington
36.79286,-84.83042,KY,Kentucky,20065,21231,Wayne
37.39614,-87.7633,KY,Kentucky,4063,21233,Webster
36.91957,-84.16357,KY,Kentucky,29497,21235,Whitley
37.71939,-83.5006,KY,Kentucky,6159,21237,Wolfe
38.01264,-84.73985,KY,Kentucky,22408,21239,Woodford
30.21021,-92.37984,LA,Louisiana,19206,22001,Acadia
30.80779,-92.61254,LA,Louisiana,10801,22003,Allen
30.22512,-90.92222,LA,Louisiana,38643,22005,Ascension
29.7218,-91.11652,LA,Louisiana,22928,22007,Assumption
31.17737,-91.96282,LA,Louisiana,11502,22009,Avoyelles
30.79389,-93.23974,LA,Louisiana,25125,22011,Beauregard
32.59461,-92.89717,LA,Louisiana,4531,22013,Bienville
32.58156,-93.70305,LA,Louisiana,38456,22015,Bossier
32.38569,-93.73632,LA,Louisiana,34814,22017,Caddo
30.13066,-93.27365,LA,Louisiana,32741,22019,Calcasieu
32.14299,-92.05546,LA,Louisiana,6295,22021,Caldwell
29.96153,-93.40869,LA,Louisiana,1262,22023,Cameron
31.51699,-91.90443,LA,Louisiana,7678,22025,Catahoula
32.7826,-93.01974,LA,Louisiana,10268,22027,Claiborne
31.65639,-91.56304,LA,Louisiana,9839,22029,Concordia
32.00943,-93.66508,LA,Louisiana,10259,22031,De Soto
30.42896,-91.0214,LA,Louisiana,43194,22033,East Baton Rouge
32.79694,-91.25569,LA,Louisiana,6759,22035,East Carroll
30.81406,-91.20544,LA,Louisiana,6657,22037,East Feliciana
30.74144,-92.33756,LA,Louisiana,20313,22039,Evangeline
32.14746,-91.70683,LA,Louisiana,14343,22041,Franklin
31.5579,-92.39541,LA,Louisiana,7998,22043,Grant
29.92402,-91.87079,LA,Louisiana,42022,22045,Iberia
30.22614,-91.28831,LA,Louisiana,17584,22047,Iberville
32.21619,-92.67173,LA,Louisiana,9051,22049,Jackson
29.83601,-90.11042,LA,Louisiana,56344,22051,Jefferson
30.26519,-92.66778,LA,Louisiana,16425,22053,Jefferson Davis
30.19554,-92.0813,LA,Louisiana,41163,22055,Lafayette
29.81411,-90.74082,LA,Louisiana,43037,22057,Lafourche
31.60484,-92.13804,LA,Louisiana,7533,22059,LaSalle
32.49458,-92.63933,LA,Louisiana,30887,22061,Lincoln
30.42802,-90.89899,LA,Louisiana,50583,22063,Livingston
32.36503,-91.18108,LA,Louisiana,11070,22065,Madison
32.86485,-91.9114,LA,Louisiana,23266,22067,Morehouse
31.74635,-93.09298,LA,Louisiana,27809,22069,Natchitoches
29.97572,-90.08698,LA,Louisiana,36228,22071,Orleans
32.5828,-92.01769,LA,Louisiana,37105,22073,Ouachita
29.74822,-90.0082,LA,Louisiana,15590,22075,Plaquemines
30.70662,-91.45552,LA,Louisiana,6993,22077,Pointe Coupee
31.32038,-92.3529,LA,Louisiana,35361,22079,Rapides
32.0481,-93.31013,LA,Louisiana,8555,22081,Red River
32.44574,-91.7869,LA,Louisiana,12757,22083,Richland
31.5428,-93.51993,LA,Louisiana,9696,22085,Sabine
29.94804,-89.96273,LA,Louisiana,16760,22087,St. Bernard
29.96954,-90.36589,LA,Louisiana,13006,22089,St. Charles
30.85865,-90.75279,LA,Louisiana,5112,22091,St. Helena
29.96837,-90.70455,LA,Louisiana,7671,22093,St. James
30.13453,-90.43478,LA,Louisiana,34101,22095,St. John the Baptist
30.53274,-92.10482,LA,Louisiana,38987,22097,St. Landry
30.29484,-91.82955,LA,Louisiana,26500,22099,St. Martin
29.73241,-91.46084,LA,Louisiana,14844,22101,St. Mary
30.25865,-89.79441,LA,Louisiana,35077,22103,St. Tammany
30.48003,-90.48389,LA,Louisiana,26011,22105,Tangipahoa
32.11104,-91.29854,LA,Louisiana,2149,22107,Tensas
29.63437,-90.68765,LA,Louisiana,30503,22109,Terrebonne
32.77183,-92.36288,LA,Louisiana,9982,22111,Union
29.89813,-92.19967,LA,Louisiana,25313,22113,Vermilion
31.16724,-93.1877,LA,Louisiana,22762,22115,Vernon
30.74609,-89.91073,LA,Louisiana,20033,22117,Washington
32.67249,-93.29812,LA,Louisiana,20268,22119,Webster
30.4741,-91.32295,LA,Louisiana,14914,22121,West Baton Rouge
32.86892,-91.42565,LA,Louisiana,8275,22123,West Carroll
30.86016,-91.36861,LA,Louisiana,14720,22125,West Feliciana
31.89383,-92.66131,LA,Louisiana,11294,22127,Winn
44.09148,-70.16807,ME,Maine,36592,23001,Androscoggin
46.13233,-67.9139,ME,Maine,9992,23003,Aroostook
43.69381,-70.29087,ME,Maine,30606,23005,Cumberland
44.65896,-70.10331,ME,Maine,9869,23007,Franklin
44.67484,-68.41708,ME,Maine,12974,23009,Hancock
44.55442,-69.57048,ME,Maine,26248,23011,Kennebec
44.12738,-69.13688,ME,Maine,7297,23013,Knox
44.10984,-69.36956,ME,Maine,5075,23015,Lincoln
44.1124,-70.51561,ME,Maine,5880,23017,Oxford
44.84923,-68.84479,ME,Maine,44899,23019,Penobscot
45.21957,-69.18355,ME,Maine,4720,23021,Piscataquis
43.89158,-69.8306,ME,Maine,10818,23023,Sagadahoc
44.79873,-69.66952,ME,Maine,9903,23025,Somerset
44.46641,-69.04163,ME,Maine,8806,23027,Waldo
44.77104,-67.55341,ME,Maine,3424,23029,Washington
43.49603,-70.49547,ME,Maine,23146,23031,York
39.64405,-78.75494,MD,Maryland,44400,24001,Allegany
39.11839,-76.50162,MD,Maryland,60576,24003,Anne Arundel
39.39347,-76.53388,MD,Maryland,69752,24005,Baltimore
38.38362,-76.44544,MD,Maryland,20483,24009,Calvert
38.86272,-75.82792,MD,Maryland,9555,24011,Caroline
39.40105,-76.97364,MD,Maryland,37941,24013,Carroll
39.62628,-75.85882,MD,Maryland,44471,24015,Cecil
38.62939,-76.97697,MD,Maryland,28967,24017,Charles
38.49314,-76.07342,MD,Maryland,17330,24019,Dorchester
39.4787,-77.45661,MD,Maryland,38847,24021,Frederick
39.38907,-79.39093,MD,Maryland,14194,24023,Garrett
39.53663,-76.35169,MD,Maryland,36047,24025,Harford
39.25753,-76.7979,MD,Maryland,42246,24027,Howard
39.20921,-76.09187,MD,Maryland,12853,24029,Kent
39.08674,-77.05664,MD,Maryland,64696,24031,Montgomery
38.75403,-76.98405,MD,Maryland,50722,24033,Prince George's
38.93959,-76.33268,MD,Maryland,12309,24035,Queen Anne's
38.23022,-76.43376,MD,Maryland,24481,24037,St. Mary's
38.20319,-75.71507,MD,Maryland,11126,24039,Somerset
38.79377,-76.08179,MD,Maryland,23597,24041,Talbot
39.634,-77.74245,MD,Maryland,61859,24043,Washington
38.31275,-75.53323,MD,Maryland,38491,24045,Wicomico
38.32022,-75.21805,MD,Maryland,22550,24047,Worcester
39.34555,-76.68369,MD,Maryland,60161,24510,Baltimore
41.59694,-70.56721,MA,Massachusetts,19583,25001,Barnstable
42.44993,-73.27644,MA,Massachusetts,46504,25003,Berkshire
41.90755,-71.11956,MA,Massachusetts,49036,25005,Bristol
41.4366,-70.58,MA,Massachusetts,4491,25007,Dukes
42.53372,-70.97223,MA,Massachusetts,50944,25009,Essex
42.62406,-72.60401,MA,Massachusetts,17700,25011,Franklin
42.15371,-72.76958,MA,Massachusetts,41117,25013,Hampden
42.37492,-72.4621,MA,Massachusetts,29049,25015,Hampshire
42.43048,-71.0576,MA,Massachusetts,59503,25017,Middlesex
41.28538,-70.0798,MA,Massachusetts,9852,25019,Nantucket
42.24759,-71.00322,MA,Massachusetts,55055,25021,Norfolk
42.07791,-71.04223,MA,Massachusetts,61025,25023,Plymouth
42.41844,-71.00351,MA,Massachusetts,51808,25025,Suffolk
42.51863,-71.76138,MA,Massachusetts,40883,25027,Worcester
44.66021,-83.37952,MI,Michigan,2556,26001,Alcona
46.3777,-86.70846,MI,Michigan,5025,26003,Alger
42.79679,-85.55403,MI,Michigan,20074,26005,Allegan
45.09161,-83.49646,MI,Michigan,22701,26007,Alpena
44.89941,-85.02411,MI,Michigan,6801,26009,Antrim
43.98067,-83.93686,MI,Michigan,5138,26011,Arenac
46.7063,-88.31649,MI,Michigan,4040,26013,Baraga
42.6319,-85.2921,MI,Michigan,19127,26015,Barry
43.59715,-83.95464,MI,Michigan,40596,26017,Bay
44.64408,-86.03256,MI,Michigan,3363,26019,Benzie
41.83224,-86.23082,MI,Michigan,37122,26021,Berrien
41.90285,-85.0232,MI,Michigan,24868,26023,Branch
42.27127,-85.22609,MI,Michigan,26782,26025,Calhoun
42.00404,-86.12198,MI,Michigan,14805,26027,Cass
45.27545,-85.23947,MI,Michigan,9172,26029,Charlevoix
45.57899,-84.45896,MI,Michigan,14436,26031,Cheboygan
46.41473,-84.28349,MI,Michigan,19668,26033,Chippewa
44.05401,-84.83131,MI,Michigan,13152,26035,Clare
43.0043,-84.57907,MI,Michigan,18075,26037,Clinton
44.69375,-84.60633,MI,Michigan,9924,26039,Crawford
45.76353,-87.15961,MI,Michigan,17347,26041,Delta
45.96732,-87.98216,MI,Michigan,11424,26043,Dickinson
42.72379,-84.63996,MI,Michigan,32062,26045,Eaton
45.34406,-84.88843,MI,Michigan,16862,26047,Emmet
42.91681,-83.62912,MI,Michigan,49209,26049,Genesee
44.06208,-84.4666,MI,Michigan,15810,26051,Gladwin
46.53458,-90.11673,MI,Michigan,7945,26053,Gogebic
44.75802,-85.70846,MI,Michigan,37963,26055,Grand Traverse
43.37769,-84.67974,MI,Michigan,12923,26057,Gratiot
41.88335,-84.61639,MI,Michigan,15248,26059,Hillsdale
47.13047,-88.60377,MI,Michigan,9630,26061,Houghton
43.80193,-82.99474,MI,Michigan,7551,26063,Huron
42.7619,-84.45391,MI,Michigan,51302,26065,Ingham
42.98705,-85.05756,MI,Michigan,20269,26067,Ionia
44.44324,-83.45424,MI,Michigan,8846,26069,Iosco
46.19923,-88.74482,MI,Michigan,6096,26071,Iron
43.61519,-84.79615,MI,Michigan,50025,26073,Isabella
42.24977,-84.38152,MI,Michigan,45190,26075,Jackson
42.30763,-85.69405,MI,Michigan,42362,26077,Kalamazoo
44.72786,-85.05865,MI,Michigan,8229,26079,Kalkaska
42.98038,-85.70938,MI,Michigan,39994,26081,Kent
47.38063,-88.11998,MI,Michigan,1121,26083,Keweenaw
43.9139,-85.86999,MI,Michigan,4328,26085,Lake
43.05351,-83.33766,MI,Michigan,30749,26087,Lapeer
44.97877,-85.65001,MI,Michigan,4253,26089,Leelanau
41.90299,-84.06361,MI,Michigan,41310,26091,Lenawee
42.56904,-83.92629,MI,Michigan,42931,26093,Livingston
46.49368,-85.50573,MI,Michigan,5409,26095,Luce
45.95424,-84.78404,MI,Michigan,4020,26097,Mackinac
42.64991,-82.92956,MI,Michigan,52289,26099,Macomb
44.22586,-86.20635,MI,Michigan,14066,26101,Manistee
46.57441,-87.46659,MI,Michigan,33561,26103,Marquette
43.98218,-86.40019,MI,Michigan,16875,26105,Mason
43.69893,-85.48913,MI,Michigan,20112,26107,Mecosta
45.21943,-87.58409,MI,Michigan,12088,26109,Menominee
43.58564,-84.33573,MI,Michigan,32690,26111,Midland
44.39399,-85.11291,MI,Michigan,7665,26113,Missaukee
41.96032,-83.43559,MI,Michigan,29344,26115,Monroe
43.18392,-85.25749,MI,Michigan,17863,26117,Montcalm
44.82343,-84.2807,MI,Michigan,3857,26119,Montmorency
43.24202,-86.12904,MI,Michigan,41214,26121,Muskegon
43.43535,-85.71356,MI,Michigan,12088,26123,Newaygo
42.65952,-83.12317,MI,Michigan,41369,26125,Oakland
43.71823,-86.28308,MI,Michigan,6420,26127,Oceana
44.32893,-84.2408,MI,Michigan,10691,26129,Ogemaw
46.80405,-89.37177,MI,Michigan,2879,26131,Ontonagon
43.89683,-85.54827,MI,Michigan,6631,26133,Osceola
44.65892,-84.10486,MI,Michigan,4420,26135,Oscoda
44.99525,-84.67105,MI,Michigan,19515,26137,Otsego
42.74045,-86.08943,MI,Michigan,44977,26139,Ottawa
45.40153,-83.87598,MI,Michigan,4639,26141,Presque Isle
44.48785,-84.60048,MI,Michigan,10293,26143,Roscommon
43.40419,-83.89371,MI,Michigan,38406,26145,Saginaw
42.97864,-82.46271,MI,Michigan,40831,26147,St. Clair
41.82444,-85.44609,MI,Michigan,19872,26149,St. Joseph
43.26262,-82.65057,MI,Michigan,6400,26151,Sanilac
46.12585,-86.3379,MI,Michigan,6469,26153,Schoolcraft
43.00319,-84.1886,MI,Michigan,28264,26155,Shiawassee
43.48559,-83.38701,MI,Michigan,12479,26157,Tuscola
42.40865,-86.21614,MI,Michigan,13810,26159,Van Buren
42.19714,-83.62885,MI,Michigan,61132,26161,Washtenaw
42.226,-83.26882,MI,Michigan,63131,26163,Wayne
44.24978,-85.50739,MI,Michigan,21236,26165,Wexford
46.48199,-93.6427,MN,Minnesota,8931,27001,Aitkin
45.28861,-93.42307,MN,Minnesota,46352,27003,Anoka
46.84061,-95.80915,MN,Minnesota,16290,27005,Becker
47.51241,-94.85697,MN,Minnesota,32225,27007,Beltrami
45.63994,-94.08445,MN,Minnesota,16163,27009,Benton
45.34709,-96.37797,MN,Minnesota,2601,27011,Big Stone
44.13203,-93.97704,MN,Minnesota,46327,27013,Blue Earth
44.3058,-94.46741,MN,Minnesota,16759,27015,Brown
46.7546,-92.54077,MN,Minnesota,16999,27017,Carlton
44.81107,-93.63664,MN,Minnesota,25493,27019,Carver
47.31969,-94.50844,MN,Minnesota,4541,27021,Cass
45.00485,-95.69625,MN,Minnesota,7757,27023,Chippewa
45.50875,-92.95257,MN,Minnesota,13546,27025,Chisago
46.84227,-96.7356,MN,Minnesota,40766,27027,Clay
47.41865,-95.40753,MN,Minnesota,4639,27029,Clearwater
47.96005,-90.56468,MN,Minnesota,3360,27031,Cook
43.88314,-95.13733,MN,Minnesota,5867,27033,Cottonwood
46.32009,-94.11506,MN,Minnesota,29439,27035,Crow Wing
44.74557,-93.20073,MN,Minnesota,49084,27037,Dakota
43.98768,-92.73785,MN,Minnesota,7151,27039,Dodge
45.87903,-95.38672,MN,Minnesota,23961,27041,Douglas
43.62263,-94.1056,MN,Minnesota,4531,27043,Faribault
43.85104,-92.18611,MN,Minnesota,4469,27045,Fillmore
43.66036,-93.32526,MN,Minnesota,21228,27047,Freeborn
44.51828,-92.54507,MN,Minnesota,18564,27049,Goodhue
45.98789,-95.98589,MN,Minnesota,1994,27051,Grant
44.93503,-93.2529,MN,Minnesota,37881,27053,Hennepin
43.8247,-91.35784,MN,Minnesota,7513,27055,Houston
47.02292,-95.09814,MN,Minnesota,10334,27057,Hubbard
45.57271,-93.27004,MN,Minnesota,14685,27059,Isanti
47.23485,-93.51155,MN,Minnesota,20164,27061,Itasca
43.63197,-95.00404,MN,Minnesota,4478,27063,Jackson
45.92772,-93.30432,MN,Minnesota,9719,27065,Kanabec
45.10152,-95.0419,MN,Minnesota,23173,27067,Kandiyohi
48.79185,-96.99733,MN,Minnesota,1364,27069,Kittson
48.53442,-93.13184,MN,Minnesota,9932,27071,Koochiching
45.02505,-96.19793,MN,Minnesota,2581,27073,Lac qui Parle
47.19078,-91.66288,MN,Minnesota,6994,27075,Lake
48.60056,-94.56999,MN,Minnesota,2749,27077,Lake of the Woods
44.44502,-93.91536,MN,Minnesota,5985,27079,Le Sueur
44.28484,-96.13117,MN,Minnesota,1746,27081,Lincoln
44.4439,-95.76042,MN,Minnesota,15617,27083,Lyon
44.89535,-94.3939,MN,Minnesota,18280,27085,McLeod
47.31672,-95.80368,MN,Minnesota,2811,27087,Mahnomen
48.16876,-96.73962,MN,Minnesota,2494,27089,Marshall
43.62218,-94.46743,MN,Minnesota,12401,27091,Martin
45.09863,-94.53992,MN,Minnesota,9656,27093,Meeker
45.5801,-93.59086,MN,Minnesota,16442,27095,Mille Lacs
45.98881,-94.37486,MN,Minnesota,14786,27097,Morrison
43.68155,-92.99022,MN,Minnesota,28483,27099,Mower
44.00895,-95.7708,MN,Minnesota,3164,27101,Murray
44.21273,-94.08862,MN,Minnesota,14335,27103,Nicollet
43.62386,-95.58284,MN,Minnesota,14170,27105,Nobles
47.36031,-96.52537,MN,Minnesota,2333,27107,Norman
44.06977,-92.50688,MN,Minnesota,51917,27109,Olmsted
46.27603,-96.0904,MN,Minnesota,18548,27111,Otter Tail
48.12209,-96.19246,MN,Minnesota,12690,27113,Pennington
45.83631,-92.90419,MN,Minnesota,9348,27115,Pine
44.05662,-96.33918,MN,Minnesota,5969,27117,Pipestone
47.97356,-96.94394,MN,Minnesota,10096,27119,Polk
45.58337,-95.3455,MN,Minnesota,5497,27121,Pope
44.96348,-93.04827,MN,Minnesota,52730,27123,Ramsey
47.89265,-96.29926,MN,Minnesota,2539,27125,Red Lake
44.53276,-95.14208,MN,Minnesota,6636,27127,Redwood
44.76534,-94.99499,MN,Minnesota,3191,27129,Renville
44.29979,-93.27719,MN,Minnesota,29732,27131,Rice
43.66279,-96.22598,MN,Minnesota,6066,27133,Rock
48.81138,-95.73293,MN,Minnesota,5575,27135,Roseau
46.84223,-92.22245,MN,Minnesota,26246,27137,St. Louis
44.7542,-93.5162,MN,Minnesota,40416,27139,Scott
45.33432,-93.56789,MN,Minnesota,36440,27141,Sherburne
44.60335,-94.10241,MN,Minnesota,3227,27143,Sibley
45.48809,-94.24224,MN,Minnesota,32434,27145,Stearns
44.05901,-93.2229,MN,Minnesota,28911,27147,Steele
45.58453,-95.93008,MN,Minnesota,6807,27149,Stevens
45.31145,-95.57235,MN,Minnesota,4693,27151,Swift
45.96753,-94.87195,MN,Minnesota,7062,27153,Todd
45.82867,-96.46747,MN,Minnesota,2029,27155,Traverse
44.39403,-92.32023,MN,Minnesota,7601,27157,Wabasha
46.46532,-95.14279,MN,Minnesota,6666,27159,Wadena
44.06461,-93.51471,MN,Minnesota,12831,27161,Waseca
44.91985,-92.94394,MN,Minnesota,43281,27163,Washington
43.99126,-94.62913,MN,Minnesota,6098,27165,Watonwan
46.28542,-96.50478,MN,Minnesota,3983,27167,Wilkin
43.9852,-91.63469,MN,Minnesota,35629,27169,Winona
45.17378,-93.85144,MN,Minnesota,23255,27171,Wright
44.79694,-95.57915,MN,Minnesota,4166,27173,Yellow Medicine
31.51024,-91.35405,MS,Mississippi,32334,28001,Adams
34.91545,-88.5635,MS,Mississippi,29133,28003,Alcorn
31.14749,-90.79778,MS,Mississippi,5016,28005,Amite
33.00421,-89.55407,MS,Mississippi,13398,28007,Attala
34.83463,-89.14271,MS,Mississippi,2894,28009,Benton
33.75623,-90.7275,MS,Mississippi,17981,28011,Bolivar
33.81439,-89.35214,MS,Mississippi,5049,28013,Calhoun
33.55159,-89.96045,MS,Mississippi,3258,28015,Carroll
33.90861,-88.96917,MS,Mississippi,8408,28017,Chickasaw
33.34737,-89.18525,MS,Mississippi,3916,28019,Choctaw
31.99671,-90.98386,MS,Mississippi,5914,28021,Claiborne
32.05253,-88.62347,MS,Mississippi,7131,28023,Clarke
33.64257,-88.68528,MS,Mississippi,16670,28025,Clay
34.15577,-90.60406,MS,Mississippi,20418,28027,Coahoma
31.98234,-90.35548,MS,Mississippi,12073,28029,Copiah
31.65046,-89.57337,MS,Mississippi,9761,28031,Covington
34.93517,-89.82292,MS,Mississippi,45956,28033,DeSoto
31.23265,-89.26717,MS,Mississippi,43366,28035,Forrest
31.48579,-91.0812,MS,Mississippi,2997,28037,Franklin
31.17153,-88.6192,MS,Mississippi,7181,28041,Greene
33.7616,-89.80424,MS,Mississippi,18403,28043,Grenada
30.26641,-89.47043,MS,Mississippi,14681,28045,Hancock
30.4776,-89.15358,MS,Mississippi,45309,28047,Harrison
32.24211,-90.2731,MS,Mississippi,33263,28049,Hinds
33.12456,-90.08243,MS,Mississippi,7324,28051,Holmes
33.18468,-90.48436,MS,Mississippi,6258,28053,Humphreys
32.91031,-91.02094,MS,Mississippi,595,28055,Issaquena
34.26496,-88.37564,MS,Mississippi,11467,28057,Itawamba
30.40501,-88.75449,MS,Mississippi,36952,28059,Jackson
31.96057,-89.25948,MS,Mississippi,5146,28061,Jasper
31.68626,-91.04597,MS,Mississippi,5409,28063,Jefferson
31.61225,-89.85545,MS,Mississippi,6050,28065,Jefferson Davis
31.71377,-89.07595,MS,Mississippi,21939,28067,Jones
32.74432,-88.70075,MS,Mississippi,4806,28069,Kemper
34.33305,-89.47578,MS,Mississippi,36699,28071,Lafayette
31.33371,-89.41261,MS,Mississippi,37492,28073,Lamar
32.26854,-88.58391,MS,Mississippi,27449,28075,Lauderdale
31.54356,-90.13547,MS,Mississippi,5635,28077,Lawrence
32.78825,-89.50043,MS,Mississippi,16569,28079,Leake
34.2213,-88.77302,MS,Mississippi,29871,28081,Lee
33.54543,-90.14512,MS,Mississippi,25297,28083,Leflore
31.56535,-90.46977,MS,Mississippi,23536,28085,Lincoln
33.43973,-88.34478,MS,Mississippi,22883,28087,Lowndes
32.50599,-90.14022,MS,Mississippi,36143,28089,Madison
31.24372,-89.76186,MS,Mississippi,17657,28091,Marion
34.8533,-89.67161,MS,Mississippi,17202,28093,Marshall
33.97596,-88.43758,MS,Mississippi,12528,28095,Monroe
33.45924,-89.73376,MS,Mississippi,7755,28097,Montgomery
32.79577,-89.12847,MS,Mississippi,24865,28099,Neshoba
32.29455,-89.12583,MS,Mississippi,6127,28101,Newton
33.10052,-88.56202,MS,Mississippi,7156,28103,Noxubee
33.43663,-88.82644,MS,Mississippi,42108,28105,Oktibbeha
34.30466,-89.95596,MS,Mississippi,16127,28107,Panola
30.54012,-89.6386,MS,Mississippi,27738,28109,Pearl River
31.38345,-88.87558,MS,Mississippi,7582,28111,Perry
31.18729,-90.38233,MS,Mississippi,21710,28113,Pike
34.2193,-89.01936,MS,Mississippi,19788,28115,Pontotoc
34.65198,-88.53079,MS,Mississippi,18707,28117,Prentiss
34.28106,-90.29651,MS,Mississippi,3073,28119,Quitman
32.42629,-89.94677,MS,Mississippi,34539,28121,Rankin
32.39096,-89.47839,MS,Mississippi,14896,28123,Scott
32.82768,-90.94762,MS,Mississippi,3334,28125,Sharkey
31.89314,-89.71877,MS,Mississippi,10460,28127,Simpson
31.83297,-89.409,MS,Mississippi,6643,28129,Smith
30.90611,-89.07637,MS,Mississippi,10374,28131,Stone
33.4489,-90.67959,MS,Mississippi,11638,28133,Sunflower
33.98139,-90.14856,MS,Mississippi,5061,28135,Tallahatchie
34.60128,-89.91621,MS,Mississippi,14462,28137,Tate
34.73986,-88.88963,MS,Mississippi,11950,28139,Tippah
34.84197,-88.21464,MS,Mississippi,9449,28141,Tishomingo
34.66771,-90.38525,MS,Mississippi,6375,28143,Tunica
34.48346,-88.99686,MS,Mississippi,16600,28145,Union
31.12978,-90.12536,MS,Mississippi,12837,28147,Walthall
32.23088,-90.85589,MS,Mississippi,32603,28149,Warren
33.30989,-91.04385,MS,Mississippi,24187,28151,Washington
31.67902,-88.66747,MS,Mississippi,15096,28153,Wayne
33.5821,-89.30716,MS,Mississippi,6008,28155,Webster
31.14245,-91.39689,MS,Mississippi,6045,28157,Wilkinson
33.10146,-89.00835,MS,Mississippi,15619,28159,Winston
34.13565,-89.60007,MS,Mississippi,9135,28161,Yalobusha
32.8361,-90.48744,MS,Mississippi,20925,28163,Yazoo
40.16727,-92.59033,MO,Missouri,21532,29001,Adair
39.9517,-94.81387,MO,Missouri,8124,29003,Andrew
40.46298,-95.54198,MO,Missouri,2101,29005,Atchison
39.20146,-91.88455,MO,Missouri,15409,29007,Audrain
36.9048,-93.91017,MO,Missouri,12624,29009,Barry
37.52501,-94.26298,MO,Missouri,8244,29011,Barton
38.25756,-94.29647,MO,Missouri,7109,29013,Bates
38.22007,-93.36823,MO,Missouri,10519,29015,Benton
37.31917,-89.99003,MO,Missouri,5984,29017,Bollinger
38.88518,-92.397,MO,Missouri,53307,29019,Boone
39.78974,-94.80173,MO,Missouri,24030,29021,Buchanan
36.76635,-90.46267,MO,Missouri,34665,29023,Butler
39.73473,-94.22787,MO,Missouri,13158,29025,Caldwell
38.8471,-91.97837,MO,Missouri,22437,29027,Callaway
38.00438,-92.77976,MO,Missouri,14286,29029,Camden
37.33785,-89.57681,MO,Missouri,36812,29031,Cape Girardeau
39.35829,-93.4837,MO,Missouri,5216,29033,Carroll
36.9678,-91.01243,MO,Missouri,2697,29035,Carter
38.78686,-94.54993,MO,Missouri,27260,29037,Cass
37.85013,-93.97884,MO,Missouri,7836,29039,Cedar
39.46796,-92.79502,MO,Missouri,3098,29041,Chariton
37.03861,-93.31839,MO,Missouri,29818,29043,Christian
40.39883,-91.72564,MO,Missouri,3911,29045,Clark
39.21306,-94.57484,MO,Missouri,40191,29047,Clay
39.54904,-94.29344,MO,Missouri,4251,29049,Clinton
38.57329,-92.27874,MO,Missouri,38090,29051,Cole
38.91429,-92.72912,MO,Missouri,11703,29053,Cooper
38.09615,-91.42884,MO,Missouri,8548,29055,Crawford
37.46179,-93.82631,MO,Missouri,2562,29057,Dade
37.63221,-93.10314,MO,Missouri,8716,29059,Dallas
39.89844,-93.94498,MO,Missouri,3140,29061,Daviess
39.92672,-94.36668,MO,Missouri,2339,29063,DeKalb
37.59664,-91.49928,MO,Missouri,14392,29065,Dent
36.89509,-92.68156,MO,Missouri,9403,29067,Douglas
36.22453,-90.04695,MO,Missouri,12956,29069,Dunklin
38.53099,-91.04845,MO,Missouri,21524,29071,Franklin
38.34963,-91.48834,MO,Missouri,6703,29073,Gasconade
40.25757,-94.32789,MO,Missouri,2388,29075,Gentry
37.16563,-93.32552,MO,Missouri,54952,29077,Greene
40.0774,-93.60166,MO,Missouri,8144,29079,Grundy
40.26243,-94.03596,MO,Missouri,4585,29081,Harrison
38.36746,-93.74306,MO,Missouri,13258,29083,Henry
37.97556,-93.38123,MO,Missouri,2207,29085,Hickory
40.16902,-95.22393,MO,Missouri,1631,29087,Holt
39.14088,-92.65599,MO,Missouri,4619,29089,Howard
36.70129,-91.85864,MO,Missouri,24908,29091,Howell
37.61627,-90.6314,MO,Missouri,4401,29093,Iron
39.05071,-94.39855,MO,Missouri,33858,29095,Jackson
37.0209,-94.50993,MO,Missouri,37521,29097,Jasper
38.42948,-90.39328,MO,Missouri,35439,29099,Jefferson
38.7948,-93.73173,MO,Missouri,27608,29101,Johnson
40.14854,-92.16016,MO,Missouri,1916,29103,Knox
37.68624,-92.64574,MO,Missouri,28874,29105,Laclede
38.98052,-93.94496,MO,Missouri,9512,29107,Lafayette
36.88356,-93.69189,MO,Missouri,12136,29109,Lawrence
40.20545,-91.58374,MO,Missouri,4219,29111,Lewis
38.99819,-90.98879,MO,Missouri,23348,29113,Lincoln
39.7972,-93.04696,MO,Missouri,6144,29115,Linn
39.80694,-93.57648,MO,Missouri,12438,29117,Livingston
36.65661,-94.45649,MO,Missouri,5879,29119,McDonald
39.75977,-92.44742,MO,Missouri,7926,29121,Macon
37.53669,-90.33513,MO,Missouri,11420,29123,Madison
38.27533,-91.74975,MO,Missouri,3515,29125,Maries
39.69234,-91.45657,MO,Missouri,22067,29127,Marion
40.37745,-93.58665,MO,Missouri,2492,29129,Mercer
38.32084,-92.57114,MO,Missouri,11551,29131,Miller
36.92082,-89.27889,MO,Missouri,7135,29133,Mississippi
38.62053,-92.5632,MO,Missouri,7714,29135,Moniteau
39.65584,-91.72647,MO,Missouri,4271,29137,Monroe
38.96252,-91.55446,MO,Missouri,4525,29139,Montgomery
38.43575,-92.8534,MO,Missouri,6797,29141,Morgan
36.42373,-89.67056,MO,Missouri,4947,29143,New Madrid
36.86087,-94.39834,MO,Missouri,24063,29145,Newton
40.34393,-94.88079,MO,Missouri,16023,29147,Nodaway
36.5617,-91.50303,MO,Missouri,4585,29149,Oregon
38.46843,-91.79341,MO,Missouri,4874,29151,Osage
36.59796,-92.42655,MO,Missouri,3186,29153,Ozark
36.13005,-89.69069,MO,Missouri,7102,29155,Pemiscot
37.71394,-89.88138,MO,Missouri,16710,29157,Perry
38.69843,-93.22617,MO,Missouri,34267,29159,Pettis
37.90464,-91.76536,MO,Missouri,32383,29161,Phelps
39.30166,-91.18781,MO,Missouri,8569,29163,Pike
39.2129,-94.7205,MO,Missouri,26024,29165,Platte
37.63521,-93.39413,MO,Missouri,17396,29167,Polk
37.70694,-92.15446,MO,Missouri,15059,29169,Pulaski
40.48406,-92.94505,MO,Missouri,3805,29171,Putnam
39.58147,-91.37768,MO,Missouri,4153,29173,Ralls
39.41515,-92.40279,MO,Missouri,17681,29175,Randolph
39.3345,-93.94569,MO,Missouri,8803,29177,Ray
37.21667,-91.00725,MO,Missouri,2920,29179,Reynolds
36.67173,-90.9157,MO,Missouri,10158,29181,Ripley
38.79987,-90.6174,MO,Missouri,70828,29183,St. Charles
38.04348,-93.66572,MO,Missouri,3942,29185,St. Clair
37.89579,-90.16836,MO,Missouri,11295,29186,Ste. Genevieve
37.75097,-90.36962,MO,Missouri,26335,29187,St. Francois
38.5688,-90.54644,MO,Missouri,56261,29189,St. Louis
39.09556,-93.1788,MO,Missouri,15937,29195,Saline
40.5301,-92.48525,MO,Missouri,1287,29197,Schuyler
40.48105,-92.19578,MO,Missouri,3201,29199,Scotland
36.89804,-89.60533,MO,Missouri,23123,29201,Scott
36.92524,-91.50254,MO,Missouri,2980,29203,Shannon
39.68064,-92.01349,MO,Missouri,2644,29205,Shelby
36.77337,-89.98702,MO,Missouri,13123,29207,Stoddard
36.71278,-93.36016,MO,Missouri,8413,29209,Stone
40.18512,-93.125,MO,Missouri,3779,29211,Sullivan
36.66901,-93.24809,MO,Missouri,24284,29213,Taney
37.50413,-91.88147,MO,Missouri,6776,29215,Texas
37.82945,-94.33173,MO,Missouri,13596,29217,Vernon
38.80634,-91.19085,MO,Missouri,15770,29219,Warren
38.20374,-91.08459,MO,Missouri,13987,29221,Washington
37.1451,-90.68288,MO,Missouri,5440,29223,Wayne
37.32358,-92.89558,MO,Missouri,14439,29225,Webster
40.48962,-94.38705,MO,Missouri,1459,29227,Worth
37.17732,-92.27674,MO,Missouri,9926,29229,Wright
38.58035,-90.2645,MO,Missouri,43540,29510,St. Louis
45.08976,-112.83786,MT,Montana,7963,30001,Beaverhead
45.69788,-107.68068,MT,Montana,5189,30003,Big Horn
48.43614,-108.71495,MT,Montana,2435,30005,Blaine
46.42112,-111.43106,MT,Montana,4036,30007,Broadwater
45.15835,-109.44983,MT,Montana,3580,30009,Carbon
45.78585,-104.54645,MT,Montana,821,30011,Carter
47.30522,-111.28925,MT,Montana,31438,30013,Cascade
47.92931,-110.61173,MT,Montana,1789,30015,Chouteau
46.29015,-105.7613,MT,Montana,11404,30017,Custer
48.78344,-105.52668,MT,Montana,1349,30019,Daniels
47.09686,-104.75105,MT,Montana,8307,30021,Dawson
46.10629,-113.0659,MT,Montana,8933,30023,Deer Lodge
46.30559,-104.2497,MT,Montana,2498,30025,Fallon
47.09214,-109.36047,MT,Montana,9105,30027,Fergus
48.22816,-114.38225,MT,Montana,49693,30029,Flathead
45.82856,-110.90996,MT,Montana,31567,30031,Gallatin
47.3852,-106.80168,MT,Montana,812,30033,Garfield
48.67267,-113.191,MT,Montana,7719,30035,Glacier
46.36786,-109.31631,MT,Montana,490,30037,Golden Valley
46.28846,-113.44897,MT,Montana,1538,30039,Granite
48.68878,-109.79899,MT,Montana,12638,30041,Hill
46.46896,-111.97465,MT,Montana,4819,30043,Jefferson
47.01982,-110.3311,MT,Montana,826,30045,Judith Basin
47.71028,-114.16698,MT,Montana,9913,30047,Lake
46.53983,-112.17643,MT,Montana,29283,30049,Lewis and Clark
48.54167,-111.00323,MT,Montana,1755,30051,Liberty
48.26408,-115.3228,MT,Montana,9856,30053,Lincoln
47.50394,-105.74629,MT,Montana,1135,30055,McCone
45.84574,-112.19624,MT,Montana,3643,30057,Madison
46.68044,-111.04716,MT,Montana,1635,30059,Meagher
47.11284,-114.90011,MT,Montana,2309,30061,Mineral
46.85634,-114.01484,MT,Montana,30940,30063,Missoula
46.4691,-108.53766,MT,Montana,4140,30065,Musselshell
45.54805,-110.569,MT,Montana,11880,30067,Park
47.13238,-108.2116,MT,Montana,436,30069,Petroleum
48.07292,-107.84039,MT,Montana,3037,30071,Phillips
48.1826,-111.89382,MT,Montana,3751,30073,Pondera
45.36386,-105.4934,MT,Montana,1164,30075,Powder River
46.36252,-112.76562,MT,Montana,5781,30077,Powell
46.88442,-105.51122,MT,Montana,913,30079,Prairie
46.18545,-114.18925,MT,Montana,13052,30081,Ravalli
47.57578,-104.08023,MT,Montana,7339,30083,Richland
48.17289,-105.66874,MT,Montana,5100,30085,Roosevelt
45.52619,-106.65039,MT,Montana,2950,30087,Rosebud
47.53049,-114.82136,MT,Montana,3270,30089,Sanders
48.74875,-104.60761,MT,Montana,2026,30091,Sheridan
46.03422,-112.46688,MT,Montana,33147,30093,Silver Bow
45.65098,-109.24568,MT,Montana,3972,30095,Stillwater
45.9299,-109.97896,MT,Montana,3027,30097,Sweet Grass
47.81702,-112.47354,MT,Montana,2643,30099,Teton
48.51891,-111.73779,MT,Montana,3820,30101,Toole
46.19039,-107.22703,MT,Montana,656,30103,Treasure
48.0986,-106.83538,MT,Montana,4490,30105,Valley
46.48596,-109.93497,MT,Montana,1505,30107,Wheatland
46.96526,-104.24901,MT,Montana,1017,30109,Wibaux
45.7757,-108.58015,MT,Montana,46564,30111,Yellowstone
40.59293,-98.37283,NE,Nebraska,26354,31001,Adams
42.19066,-97.98002,NE,Nebraska,2058,31003,Antelope
41.5665,-101.69469,NE,Nebraska,400,31005,Arthur
41.57521,-103.74548,NE,Nebraska,455,31007,Banner
41.82839,-100.15387,NE,Nebraska,299,31009,Blaine
41.73402,-98.06988,NE,Nebraska,2967,31011,Boone
42.12052,-102.88315,NE,Nebraska,10125,31013,Box Butte
42.86574,-98.69309,NE,Nebraska,774,31015,Boyd
42.37777,-99.90852,NE,Nebraska,2484,31017,Brown
40.72732,-99.16302,NE,Nebraska,19523,31019,Buffalo
41.79941,-96.21152,NE,Nebraska,2504,31021,Burt
41.24724,-97.13113,NE,Nebraska,3989,31023,Butler
40.98141,-95.9344,NE,Nebraska,12422,31025,Cass
42.62569,-97.26944,NE,Nebraska,3002,31027,Cedar
40.56053,-101.67848,NE,Nebraska,2577,31029,Chase
42.71527,-100.61122,NE,Nebraska,4005,31031,Cherry
41.1279,-103.02521,NE,Nebraska,7765,31033,Cheyenne
40.58518,-97.85126,NE,Nebraska,1888,31035,Clay
41.49314,-97.08363,NE,Nebraska,7282,31037,Colfax
41.83971,-96.72147,NE,Nebraska,4898,31039,Cuming
41.38296,-99.63172,NE,Nebraska,4834,31041,Custer
42.46058,-96.44131,NE,Nebraska,15447,31043,Dakota
42.82655,-103.0109,NE,Nebraska,7365,31045,Dawes
40.82956,-99.73644,NE,Nebraska,12295,31047,Dawson
41.11253,-102.41746,NE,Nebraska,1368,31049,Deuel
42.25774,-96.89289,NE,Nebraska,2104,31051,Dixon
41.43794,-96.48937,NE,Nebraska,30376,31053,Dodge
41.29498,-96.00128,NE,Nebraska,34664,31055,Douglas
40.13757,-101.54253,NE,Nebraska,1348,31057,Dundy
40.50994,-97.60024,NE,Nebraska,2573,31059,Fillmore
40.10132,-98.96887,NE,Nebraska,1318,31061,Franklin
40.62265,-100.51306,NE,Nebraska,1220,31063,Frontier
40.35961,-100.18581,NE,Nebraska,1570,31065,Furnas
40.25097,-96.74956,NE,Nebraska,14546,31067,Gage
41.43717,-102.34768,NE,Nebraska,1291,31069,Garden
41.92648,-99.10902,NE,Nebraska,2401,31071,Garfield
40.59087,-99.88137,NE,Nebraska,1836,31073,Gosper
41.97744,-101.73279,NE,Nebraska,383,31075,Grant
41.76104,-98.40602,NE,Nebraska,940,31077,Greeley
40.94786,-98.29168,NE,Nebraska,30005,31079,Hall
40.81766,-98.0083,NE,Nebraska,5475,31081,Hamilton
40.15688,-99.33723,NE,Nebraska,1446,31083,Harlan
40.55802,-101.0205,NE,Nebraska,498,31085,Hayes
40.23231,-100.85152,NE,Nebraska,1195,31087,Hitchcock
42.50868,-98.60943,NE,Nebraska,4887,31089,Holt
42.10925,-101.13246,NE,Nebraska,886,31091,Hooker
41.24501,-98.45044,NE,Nebraska,3289,31093,Howard
40.1458,-97.22032,NE,Nebraska,5222,31095,Jefferson
40.36099,-96.22739,NE,Nebraska,3182,31097,Johnson
40.48589,-98.91425,NE,Nebraska,4015,31099,Kearney
41.09961,-101.67648,NE,Nebraska,5769,31101,Keith
42.86757,-99.79082,NE,Nebraska,572,31103,Keya Paha
41.24648,-103.67054,NE,Nebraska,3214,31105,Kimball
42.77007,-97.54017,NE,Nebraska,1860,31107,Knox
40.73488,-96.64258,NE,Nebraska,38956,31109,Lancaster
41.14257,-100.80075,NE,Nebraska,29904,31111,Lincoln
41.56182,-100.57078,NE,Nebraska,873,31113,Logan
41.90208,-99.54467,NE,Nebraska,417,31115,Loup
41.59474,-101.00346,NE,Nebraska,441,31117,McPherson
42.02136,-97.44362,NE,Nebraska,30670,31119,Madison
41.16361,-98.01551,NE,Nebraska,3955,31121,Merrick
41.60962,-103.14128,NE,Nebraska,2466,31123,Morrill
41.37422,-97.9868,NE,Nebraska,1749,31125,Nance
40.36566,-95.85854,NE,Nebraska,4389,31127,Nemaha
40.06335,-98.09144,NE,Nebraska,2377,31129,Nuckolls
40.6375,-95.88476,NE,Nebraska,8716,31131,Otoe
40.09409,-96.20202,NE,Nebraska,1285,31133,Pawnee
40.85081,-101.78043,NE,Nebraska,1775,31135,Perkins
40.42913,-99.38991,NE,Nebraska,6567,31137,Phelps
42.19959,-97.55189,NE,Nebraska,3174,31139,Pierce
41.45254,-97.40237,NE,Nebraska,28185,31141,Platte
41.11091,-97.61556,NE,Nebraska,1611,31143,Polk
40.24978,-100.64165,NE,Nebraska,9449,31145,Red Willow
40.11509,-95.56405,NE,Nebraska,5113,31147,Richardson
42.40226,-99.48642,NE,Nebraska,1224,31149,Rock
40.62329,-96.94774,NE,Nebraska,8327,31151,Saline
41.10148,-95.94331,NE,Nebraska,27926,31153,Sarpy
41.18598,-96.62429,NE,Nebraska,5640,31155,Saunders
41.92459,-103.6217,NE,Nebraska,17999,31157,Scotts Bluff
40.90874,-97.12034,NE,Nebraska,8576,31159,Seward
42.69427,-102.01462,NE,Nebraska,2538,31161,Sheridan
41.29252,-98.98825,NE,Nebraska,1559,31163,Sherman
42.6874,-103.81099,NE,Nebraska,592,31165,Sioux
41.95641,-97.20831,NE,Nebraska,2433,31167,Stanton
40.13915,-97.55058,NE,Nebraska,2075,31169,Thayer
42.07125,-100.56854,NE,Nebraska,600,31171,Thomas
42.2357,-96.47119,NE,Nebraska,1934,31173,Thurston
41.60042,-98.93661,NE,Nebraska,3007,31175,Valley
41.54784,-96.16351,NE,Nebraska,12285,31177,Washington
42.21441,-97.03474,NE,Nebraska,6647,31179,Wayne
40.28849,-98.41415,NE,Nebraska,1461,31181,Webster
41.94183,-98.58052,NE,Nebraska,275,31183,Wheeler
40.8664,-97.59544,NE,Nebraska,9338,31185,York
39.52215,-118.31664,NV,Nevada,24772,32001,Churchill
36.17139,-115.04774,NV,Nevada,70994,32003,Clark
38.90104,-119.79054,NV,Nevada,13236,32005,Douglas
41.24908,-115.75892,NV,Nevada,23298,32007,Elko
37.77763,-118.08391,NV,Nevada,415,32009,Esmeralda
39.63085,-116.17713,NV,Nevada,1408,32011,Eureka
41.16908,-118.2742,NV,Nevada,16114,32013,Humboldt
40.42658,-116.97367,NV,Nevada,5358,32015,Lander
37.27637,-114.54633,NV,Nevada,1508,32017,Lincoln
39.5641,-119.1716,NV,Nevada,19626,32019,Lyon
38.48552,-118.64151,NV,Nevada,3793,32021,Mineral
36.16602,-116.00381,NV,Nevada,21169,32023,Nye
40.2717,-118.179,NV,Nevada,5150,32027,Pershing
39.29646,-119.65876,NV,Nevada,947,32029,Storey
39.49208,-119.74508,NV,Nevada,43566,32031,Washoe
39.54452,-114.77306,NV,Nevada,7606,32033,White Pine
39.13971,-119.71839,NV,Nevada,27625,32510,Carson City
43.57267,-71.47744,NH,New Hampshire,15963,33001,Belknap
43.61216,-71.17165,NH,New Hampshire,6314,33003,Carroll
42.96264,-72.29556,NH,New Hampshire,25280,33005,Cheshire
44.49905,-71.15716,NH,New Hampshire,10051,33007,Coos
43.71777,-72.18929,NH,New Hampshire,10538,33009,Grafton
42.95352,-71.44432,NH,New Hampshire,36476,33011,Hillsborough
43.22434,-71.54337,NH,New Hampshire,33008,33013,Merrimack
42.88877,-71.27988,NH,New Hampshire,33269,33015,Rockingham
43.18879,-70.88678,NH,New Hampshire,30039,33017,Strafford
43.35826,-72.3253,NH,New Hampshire,14103,33019,Sullivan
39.38657,-74.62376,NJ,New Jersey,42532,34001,Atlantic
40.889,-74.0461,NJ,New Jersey,43010,34003,Bergen
39.86049,-74.89466,NJ,New Jersey,45538,34005,Burlington
39.73665,-74.97546,NJ,New Jersey,50589,34007,Camden
38.9732,-74.92006,NJ,New Jersey,18557,34009,Cape May
39.43972,-75.26083,NJ,New Jersey,46872,34011,Cumberland
40.72421,-74.23173,NJ,New Jersey,53942,34013,Essex
39.65352,-74.9672,NJ,New Jersey,39940,34015,Gloucester
40.76736,-74.03227,NJ,New Jersey,66515,34017,Hudson
40.52109,-74.86364,NJ,New Jersey,30354,34019,Hunterdon
40.3633,-74.65568,NJ,New Jersey,47115,34021,Mercer
40.54674,-74.46361,NJ,New Jersey,55961,34023,Middlesex
40.22544,-74.2854,NJ,New Jersey,56257,34025,Monmouth
40.78337,-74.49955,NJ,New Jersey,43747,34027,Morris
40.07645,-74.20323,NJ,New Jersey,92843,34029,Ocean
40.85748,-74.12819,NJ,New Jersey,69816,34031,Passaic
39.69949,-75.44961,NJ,New Jersey,13076,34033,Salem
40.49835,-74.53286,NJ,New Jersey,49921,34035,Somerset
41.06025,-74.81341,NJ,New Jersey,26288,34037,Sussex
40.69419,-74.26895,NJ,New Jersey,53053,34039,Union
40.85407,-74.83574,NJ,New Jersey,29849,34041,Warren
35.05851,-106.87792,NM,New Mexico,76721,35001,Bernalillo
33.7196,-108.73952,NM,New Mexico,999,35003,Catron
33.18608,-104.34425,NM,New Mexico,31561,35005,Chaves
34.93005,-107.93989,NM,New Mexico,11347,35006,Cibola
36.75539,-104.41045,NM,New Mexico,8068,35007,Colfax
34.49874,-103.28374,NM,New Mexico,45006,35009,Curry
34.323,-104.40797,NM,New Mexico,1932,35011,De Baca
32.29006,-106.75389,NM,New Mexico,37484,35013,Doña Ana
32.29637,-104.41327,NM,New Mexico,33725,35015,Eddy
32.64982,-108.33018,NM,New Mexico,18585,35017,Grant
34.91298,-104.69773,NM,New Mexico,3559,35019,Guadalupe
35.9814,-104.08691,NM,New Mexico,361,35021,Harding
32.3796,-108.77269,NM,New Mexico,3662,35023,Hidalgo
32.7078,-103.47152,NM,New Mexico,37149,35025,Lea
33.34798,-105.68001,NM,New Mexico,8845,35027,Lincoln
35.84231,-106.29078,NM,New Mexico,17950,35028,Los Alamos
32.18773,-107.72945,NM,New Mexico,23222,35029,Luna
35.47484,-108.83461,NM,New Mexico,23674,35031,McKinley
35.96341,-105.3675,NM,New Mexico,1672,35033,Mora
32.70079,-106.00576,NM,New Mexico,35776,35035,Otero
35.1126,-103.83175,NM,New Mexico,6944,35037,Quay
35.99328,-106.08988,NM,New Mexico,18223,35039,Rio Arriba
34.13552,-103.31046,NM,New Mexico,18651,35041,Roosevelt
35.26776,-106.78289,NM,New Mexico,51404,35043,Sandoval
36.74121,-108.17992,NM,New Mexico,46293,35045,San Juan
35.53869,-104.927,NM,New Mexico,20081,35047,San Miguel
35.59348,-106.10777,NM,New Mexico,45890,35049,Santa Fe
33.19995,-107.1436,NM,New Mexico,7139,35051,Sierra
34.13038,-106.84601,NM,New Mexico,10221,35053,Socorro
36.39918,-105.53628,NM,New Mexico,11706,35055,Taos
34.96001,-105.98053,NM,New Mexico,7268,35057,Torrance
36.31373,-103.32582,NM,New Mexico,3569,35059,Union
34.73183,-106.8878,NM,New Mexico,44075,35061,Valencia
42.68108,-73.84824,NY,New York,29952,36001,Albany
42.07697,-77.93711,NY,New York,9616,36003,Allegany
40.88085,-73.87394,NY,New York,97060,36005,Bronx
42.1349,-76.08467,NY,New York,44264,36007,Broome
42.07338,-78.41389,NY,New York,18775,36009,Cattaraugus
42.92381,-76.55891,NY,New York,39506,36011,Cayuga
42.07881,-79.25735,NY,New York,40730,36013,Chautauqua
42.20497,-76.83565,NY,New York,20453,36015,Chemung
42.54688,-75.53117,NY,New York,13999,36017,Chenango
44.70385,-73.47383,NY,New York,33439,36019,Clinton
42.22274,-73.75158,NY,New York,17867,36021,Columbia
42.58146,-76.19211,NY,New York,30112,36023,Cortland
42.16588,-75.16721,NY,New York,6596,36025,Delaware
41.70357,-73.91165,NY,New York,43398,36027,Dutchess
42.98003,-78.72285,NY,New York,53555,36029,Erie
44.22892,-73.98407,NY,New York,5492,36031,Essex
44.74094,-74.26329,NY,New York,15836,36033,Franklin
43.1238,-74.36368,NY,New York,23773,36035,Fulton
42.99624,-78.21274,NY,New York,23306,36037,Genesee
42.22399,-73.92038,NY,New York,10510,36039,Greene
43.75919,-74.29218,NY,New York,1166,36041,Hamilton
42.96706,-75.08337,NY,New York,11096,36043,Herkimer
43.96837,-75.90674,NY,New York,38158,36045,Jefferson
40.64639,-73.9568,NY,New York,101572,36047,Kings
43.85827,-75.30587,NY,New York,8830,36049,Lewis
42.5752,-77.73827,NY,New York,11415,36051,Livingston
43.06521,-75.64463,NY,New York,14125,36053,Madison
43.2193,-77.4455,NY,New York,50587,36055,Monroe
42.93798,-74.17385,NY,New York,28937,36057,Montgomery
40.70173,-73.62007,NY,New York,56435,36059,Nassau
40.79857,-73.96659,NY,New York,94600,36061,New York
43.16018,-78.7009,NY,New York,50666,36063,Niagara
43.21598,-75.4613,NY,New York,42986,36065,Oneida
43.16746,-76.36419,NY,New York,31637,36067,Onondaga
42.8481,-77.3082,NY,New York,27007,36069,Ontario
41.5372,-74.05256,NY,New York,54447,36071,Orange
43.23425,-78.21193,NY,New York,14491,36073,Orleans
43.43486,-76.46232,NY,New York,37205,36075,Oswego
42.47465,-75.04058,NY,New York,22455,36077,Otsego
41.37973,-73.75123,NY,New York,26339,36079,Putnam
40.74959,-73.8526,NY,New York,109931,36081,Queens
42.75061,-73.60221,NY,New York,53606,36083,Rensselaer
40.59912,-74.16573,NY,New York,85510,36085,Richmond
41.11767,-74.04813,NY,New York,59048,36087,Rockland
44.653,-74.92142,NY,New York,16646,36089,St. Lawrence
42.85316,-73.78651,NY,New York,41776,36091,Saratoga
42.74956,-73.9246,NY,New York,29857,36093,Schenectady
42.70454,-74.52275,NY,New York,8509,36095,Schoharie
42.37724,-76.94575,NY,New York,4149,36097,Schuyler
42.91464,-76.78471,NY,New York,10750,36099,Seneca
42.12985,-77.03316,NY,New York,19850,36101,Steuben
40.81438,-73.36095,NY,New York,67094,36103,Suffolk
41.64914,-74.70027,NY,New York,11324,36105,Sullivan
42.11188,-76.25461,NY,New York,11759,36107,Tioga
42.43102,-76.49958,NY,New York,63886,36109,Tompkins
41.9356,-74.05274,NY,New York,35040,36111,Ulster
43.33895,-73.68406,NY,New York,26540,36113,Warren
43.34719,-73.55348,NY,New York,13588,36115,Washington
43.07281,-77.09531,NY,New York,13976,36117,Wayne
40.94541,-73.88039,NY,New York,63393,36119,Westchester
42.83226,-78.29692,NY,New York,9822,36121,Wyoming
42.66712,-77.0653,NY,New York,12820,36123,Yates
36.03179,-79.48891,NC,North Carolina,38807,37001,Alamance
35.92094,-81.2221,NC,North Carolina,25910,37003,Alexander
36.50348,-81.13528,NC,North Carolina,6621,37005,Alleghany
34.99577,-80.09668,NC,North Carolina,12355,37007,Anson
36.36256,-81.47353,NC,North Carolina,7744,37009,Ashe
36.03015,-81.94099,NC,North Carolina,9488,37011,Avery
35.59113,-77.01426,NC,North Carolina,27468,37013,Beaufort
35.98396,-76.93933,NC,North Carolina,10416,37015,Bertie
34.66142,-78.57076,NC,North Carolina,10670,37017,Bladen
34.23767,-78.09332,NC,North Carolina,27112,37019,Brunswick
35.57236,-82.6143,NC,North Carolina,38550,37021,Buncombe
35.75713,-81.74413,NC,North Carolina,54996,37023,Burke
35.40848,-80.67522,NC,North Carolina,55435,37025,Cabarrus
35.97722,-81.54412,NC,North Carolina,47703,37027,Caldwell
36.35833,-76.16909,NC,North Carolina,4805,37029,Camden
34.78153,-76.85392,NC,North Carolina,21432,37031,Carteret
36.3771,-79.34625,NC,North Carolina,4661,37033,Caswell
35.77253,-81.32637,NC,North Carolina,50026,37035,Catawba
35.75677,-79.19675,NC,North Carolina,18306,37037,Chatham
35.11873,-84.13326,NC,North Carolina,18475,37039,Cherokee
36.1007,-76.60012,NC,North Carolina,12562,37041,Chowan
35.06241,-83.72758,NC,North Carolina,8533,37043,Clay
35.34829,-81.57502,NC,North Carolina,28098,37045,Cleveland
34.30706,-78.68919,NC,North Carolina,19658,37047,Columbus
35.08049,-77.12676,NC,North Carolina,36176,37049,Craven
35.05815,-79.0226,NC,North Carolina,54520,37051,Cumberland
36.48334,-76.14524,NC,North Carolina,10144,37053,Currituck
36.01761,-75.68664,NC,North Carolina,10862,37055,Dare
35.8577,-80.09977,NC,North Carolina,46084,37057,Davidson
35.92348,-80.57515,NC,North Carolina,25839,37059,Davie
34.73526,-77.90113,NC,North Carolina,10103,37061,Duplin
35.89496,-78.92368,NC,North Carolina,46660,37063,Durham
35.9155,-77.7361,NC,North Carolina,21740,37065,Edgecombe
36.11845,-80.07738,NC,North Carolina,51136,37067,Forsyth
36.10367,-78.23827,NC,North Carolina,24112,37069,Franklin
35.26275,-81.15012,NC,North Carolina,36270,37071,Gaston
36.50216,-76.77868,NC,North Carolina,4333,37073,Gates
35.34573,-83.84631,NC,North Carolina,8558,37075,Graham
36.36262,-78.65005,NC,North Carolina,25255,37077,Granville
35.32189,-77.7815,NC,North Carolina,14093,37079,Greene
35.99912,-79.76566,NC,North Carolina,56458,37081,Guilford
36.43001,-77.72095,NC,North Carolina,27236,37083,Halifax
35.26848,-78.56989,NC,North Carolina,24908,37085,Harnett
35.46316,-82.99226,NC,North Carolina,20714,37087,Haywood
35.38984,-82.36889,NC,North Carolina,32689,37089,Henderson
36.28948,-76.99311,NC,North Carolina,12007,37091,Hertford
34.99191,-79.24264,NC,North Carolina,37991,37093,Hoke
35.52143,-76.03259,NC,North Carolina,1476,37095,Hyde
35.86506,-80.88572,NC,North Carolina,36189,37097,Iredell
35.35523,-83.21137,NC,North Carolina,16111,37099,Jackson
35.61427,-78.47188,NC,North Carolina,36357,37101,Johnston
35.07395,-77.41455,NC,North Carolina,3942,37103,Jones
35.51635,-79.18719,NC,North Carolina,37947,37105,Lee
35.22495,-77.63539,NC,North Carolina,21642,37107,Lenoir
